volcano_number,volcano_name,primary_volcano_type,last_eruption_year,country,region,subregion,latitude,longitude,elevation,population_within_5_km,population_within_10_km,population_within_30_km,population_within_100_km
283001,Abu,Shield(s),-6850,Japan,"Japan, Taiwan, Marianas",Honshu,34.5,131.6,641,3597,9594,117805,4071152
355096,Acamarachi,Stratovolcano,Unknown,Chile,South America,"Northern Chile, Bolivia and Argentina",-23.292,-67.618,6023,0,7,294,9092
342080,Acatenango,Stratovolcano(es),1972,Guatemala,México and Central America,Guatemala,14.501,-90.876,3976,4329,60730,1042836,7634778
213004,Acigol-Nevsehir,Caldera,-2080,Turkey,Mediterranean and Western Asia,Turkey,38.537,34.621,1683,127863,127863,218469,2253483
321040,Adams,Stratovolcano,950,United States,Canada and Western USA,USA (Washington),46.206,-121.49,3742,0,70,4019,393303
283170,Adatarayama,Stratovolcano(es),1996,Japan,"Japan, Taiwan, Marianas",Honshu,37.647,140.281,1728,428,3936,717078,5024654
221170,Adwa,Stratovolcano,Unknown,Ethiopia,Africa and Red Sea,Africa (northeastern) and Red Sea,10.07,40.84,1733,101,485,18645,1242922
221110,Afdera,Stratovolcano,Unknown,Ethiopia,Africa and Red Sea,Africa (northeastern) and Red Sea,13.088,40.853,1250,51,6042,8611,161009
284160,Agrigan,Stratovolcano,1917,United States,"Japan, Taiwan, Marianas","Izu, Volcano, and Mariana Islands",18.77,145.67,965,0,0,0,0
342100,Agua,Stratovolcano,Unknown,Guatemala,México and Central America,Guatemala,14.465,-90.743,3760,9890,114404,2530449,7441660
382090,Agua de Pau,Stratovolcano,1564,Portugal,Atlantic Ocean,Azores,37.77,-25.47,947,406,17272,113131,119653
358062,Aguilera,Stratovolcano,-1250,Chile,South America,Southern Chile and Argentina,-50.33,-73.75,2546,0,0,103,5698
264020,Agung,Stratovolcano,2019,Indonesia,Indonesia,Lesser Sunda Islands,-8.343,115.508,2997,5657,76781,968381,4550176
284141,Ahyi,Submarine,2014,United States,"Japan, Taiwan, Marianas","Izu, Volcano, and Mariana Islands",20.42,145.03,-75,0,0,0,0
282080,Aira,Caldera,2020,Japan,"Japan, Taiwan, Marianas",Ryukyu Islands and Kyushu,31.593,130.657,1117,4918,113874,905254,2610033
300125,Akademia Nauk,Stratovolcano(es),1996,Russia,Kamchatka and Mainland Asia,Kamchatka Peninsula,53.98,159.45,1180,3,3,615,12484
283130,Akagisan,Stratovolcano,Unknown,Japan,"Japan, Taiwan, Marianas",Honshu,36.56,139.193,1828,961,4538,1116366,16718375
285070,Akan,Caldera,2008,Japan,"Japan, Taiwan, Marianas",Hokkaido,43.384,144.013,1499,2062,2062,9756,929538
283230,Akita-Komagatake,Stratovolcano(es),1971,Japan,"Japan, Taiwan, Marianas",Honshu,39.761,140.799,1637,376,3864,216708,2521611
283260,Akita-Yakeyama,Stratovolcano,1997,Japan,"Japan, Taiwan, Marianas",Honshu,39.964,140.757,1366,127,721,55493,3122037
282022,Akusekijima,Stratovolcano(es),Unknown,Japan,"Japan, Taiwan, Marianas",Ryukyu Islands and Kyushu,29.465,129.594,555,52,52,199,749
311320,Akutan,Stratovolcano,1992,United States,Alaska,Aleutian Islands,54.134,-165.986,1303,0,24,233,4361
290390,Alaid,Stratovolcano,2018,Russia,Kuril Islands,Kuril Islands,50.861,155.565,2285,0,64,64,2887
221112,Alayta,Shield,1915,Ethiopia,Africa and Red Sea,Africa (northeastern) and Red Sea,12.888,40.573,1496,156,925,13459,330411
353040,Alcedo,Shield,1993,Ecuador,South America,Galapagos Islands,-0.43,-91.12,1130,290,290,388,10756
221090,Ale Bagu,Stratovolcano,Unknown,Ethiopia,Africa and Red Sea,Africa (northeastern) and Red Sea,13.512,40.631,988,2,919,8424,278270
221040,Alid,Stratovolcano,Unknown,Eritrea,Africa and Red Sea,Africa (northeastern) and Red Sea,14.88,39.92,904,517,2447,25942,1216179
352031,Aliso,Stratovolcano,-2450,Ecuador,South America,Ecuador,-0.53,-78,4267,0,0,0,0
320020,Alligator Lake,Volcanic field,Unknown,Canada,Canada and Western USA,Canada,60.42,-135.42,2217,0,0,47,20636
342040,Almolonga,Stratovolcano,1818,Guatemala,México and Central America,Guatemala,14.797,-91.519,3173,91323,287487,1126942,6828403
300450,Alney-Chashakondzha,Stratovolcano,1600,Russia,Kamchatka and Mainland Asia,Kamchatka Peninsula,56.656,159.647,2570,0,0,3,10679
221060,Alu-Dalafilla,Fissure vent(s),2008,Ethiopia,Africa and Red Sea,Africa (northeastern) and Red Sea,13.793,40.553,578,0,9,11209,478054
221270,Alutu,Stratovolcano,-50,Ethiopia,Africa and Red Sea,Africa (northeastern) and Red Sea,7.77,38.78,2335,6011,25619,314216,6813710
311390,Amak,Stratovolcano,1796,United States,Alaska,Aleutian Islands,55.424,-163.149,488,0,0,0,1345
268072,Amasing,Stratovolcano(es),Unknown,Indonesia,Indonesia,Halmahera,-0.53,127.48,1030,59,803,26015,92417
257030,Ambae,Shield,2018,Vanuatu,Melanesia and Australia,Vanuatu,-15.389,167.835,1496,73,1279,4326,73308
273088,Ambalatungan Group,Compound,Unknown,Philippines,Philippines and SE Asia,Luzon,17.32,121.1,2329,493,3803,55724,4652400
266020,Ambang,Complex,2005,Indonesia,Indonesia,Sulawesi,0.75,124.42,1795,9155,46469,319137,1730602
254020,Ambitle,Stratovolcano,-350,Papua New Guinea,Melanesia and Australia,New Ireland,-4.08,153.65,450,1643,9195,9779,24367
233011,Ambre-Bobaomby,Volcanic field,Unknown,Madagascar,Middle East and Indian Ocean,Indian Ocean (western),-12.6,49.15,1475,20396,20396,51426,408436
257040,Ambrym,Pyroclastic shield,2018,Vanuatu,Melanesia and Australia,Vanuatu,-16.25,168.12,1334,9,186,10826,63999
234001,Amsterdam Island,Stratovolcano,Unknown,France,Middle East and Indian Ocean,Indian Ocean (southern),-37.83,77.52,881,0,0,0,0
311190,Amukta,Stratovolcano,1997,United States,Alaska,Aleutian Islands,52.5,-171.252,1066,0,0,0,0
284200,Anatahan,Stratovolcano,2008,United States,"Japan, Taiwan, Marianas","Izu, Volcano, and Mariana Islands",16.35,145.67,790,0,0,0,0
300390,Anaun,Stratovolcano,Unknown,Russia,Kamchatka and Mainland Asia,Kamchatka Peninsula,56.32,158.83,1828,2,4,56,5933
354004,Andahua-Orcopampa,Pyroclastic cone(s),1490,Peru,South America,Peru,-15.42,-72.33,4713,10317,10317,16541,171897
390023,Andrus,Shield(s),Unknown,Antarctica,Antarctica,Antarctica and South Sandwich Islands,-75.8,-132.33,2978,0,0,0,0
257110,Aneityum,Stratovolcano(es),Unknown,Vanuatu,Melanesia and Australia,Vanuatu,-20.2,169.78,852,176,692,703,22731
312090,Aniakchak,Caldera,1931,United States,Alaska,Alaska Peninsula,56.88,-158.17,1341,0,0,36,479
357153,Antillanca Volcanic Complex,Stratovolcano(es),-230,Chile,South America,Central Chile and Argentina,-40.783,-72.15,1979,87,521,5986,530586
352030,Antisana,Stratovolcano,1802,Ecuador,South America,Ecuador,-0.481,-78.141,5753,232,2220,56154,3314142
355180,Antofagasta Volcanic Field,Pyroclastic cone(s),Unknown,Argentina,South America,"Northern Chile, Bolivia and Argentina",-26.12,-67.4,3495,188,188,257,4295
357080,Antuco,Stratovolcano,1869,Chile,South America,Central Chile and Argentina,-37.406,-71.349,2979,117,474,3872,381623
284060,Aogashima,Stratovolcano,1785,Japan,"Japan, Taiwan, Marianas","Izu, Volcano, and Mariana Islands",32.458,139.759,423,232,232,232,8559
358024,Apagado,Pyroclastic cone,-590,Chile,South America,Southern Chile and Argentina,-41.88,-72.58,1210,5,44,4474,354002
343010,Apaneca Range,Stratovolcano(es),Unknown,El Salvador,México and Central America,El Salvador and Honduras,13.891,-89.786,2036,11141,151502,1113282,6215853
343071,Apastepeque Field,Volcanic field,Unknown,El Salvador,México and Central America,El Salvador and Honduras,13.72,-88.77,700,377730,377730,687849,6372608
271030,Apo,Stratovolcano,Unknown,Philippines,Philippines and SE Asia,Mindanao,6.989,125.269,2938,1355,5431,767800,7768291
344091,Apoyeque,Pyroclastic shield,-50,Nicaragua,México and Central America,Nicaragua,12.242,-86.342,518,2369,116718,1342581,3445854
355160,Aracar,Stratovolcano,Unknown,Argentina,South America,"Northern Chile, Bolivia and Argentina",-24.29,-67.783,6095,0,0,94,4803
214060,Aragats,Stratovolcano,Unknown,Armenia,Mediterranean and Western Asia,Western Asia,40.53,44.2,4095,0,163,150143,3046562
213040,Ararat,Stratovolcano,1840,Turkey,Mediterranean and Western Asia,Turkey,39.7,44.3,5165,25,1239,135563,2811646
273084,Arayat,Stratovolcano,Unknown,Philippines,Philippines and SE Asia,Luzon,15.2,120.742,1026,7846,190674,2805269,27216491
221126,Ardoukoba,Fissure vent(s),1978,Djibouti,Africa and Red Sea,Africa (northeastern) and Red Sea,11.58,42.47,298,2895,2895,6898,560146
345033,Arenal,Stratovolcano,2010,Costa Rica,México and Central America,Costa Rica,10.463,-84.703,1670,3429,15643,96512,3027485
231090,"Arhab, Harra of",Volcanic field,500,Yemen,Middle East and Indian Ocean,Middle East (southern),15.63,44.08,3100,284443,284443,820695,6517834
263290,Arjuno-Welirang,Stratovolcano,1952,Indonesia,Indonesia,Java,-7.733,112.575,3339,2584,53983,4143137,25385433
305011,Arxan-Chaihe,Pyroclastic cone(s),0,China,Kamchatka and Mainland Asia,China (eastern),47.45,120.8,1677,6435,6435,6435,188163
300058,Asacha,Complex,Unknown,Russia,Kamchatka and Mainland Asia,Kamchatka Peninsula,52.355,157.827,1910,0,0,34,238467
283110,Asamayama,Complex,2019,Japan,"Japan, Taiwan, Marianas",Honshu,36.406,138.523,2568,583,22371,457576,7629353
385050,Ascension,Stratovolcano,1508,United Kingdom,Atlantic Ocean,Atlantic Ocean (central),-7.95,-14.37,858,614,1149,1149,1149
373060,Askja,Stratovolcano,1961,Iceland,Iceland and Arctic Ocean,Iceland (northeastern),65.033,-16.783,1080,0,0,0,13028
282110,Asosan,Caldera,2020,Japan,"Japan, Taiwan, Marianas",Ryukyu Islands and Kyushu,32.884,131.104,1592,75559,75559,234591,6507519
221125,Assab Volcanic Field,Volcanic field,Unknown,Eritrea,Africa and Red Sea,Africa (northeastern) and Red Sea,12.95,42.43,987,9,9,97,181952
284150,Asuncion,Stratovolcano,1906,United States,"Japan, Taiwan, Marianas","Izu, Volcano, and Mariana Islands",19.671,145.406,857,0,0,0,0
282070,Ata,Caldera(s),885,Japan,"Japan, Taiwan, Marianas",Ryukyu Islands and Kyushu,31.22,130.57,924,93134,93134,171590,1891380
352021,Atacazo,Stratovolcano,-320,Ecuador,South America,Ecuador,-0.353,-78.617,4463,449,212988,1837303,3769593
311160,Atka,Stratovolcano(es),1812,United States,Alaska,Aleutian Islands,52.331,-174.139,1448,0,0,207,207
320030,Atlin Volcanic Field,Pyroclastic cone(s),Unknown,Canada,Canada and Western USA,Canada,59.68,-133.32,1880,0,0,94,956
357023,"Atuel, Caldera del",Caldera,Unknown,Argentina,South America,Central Chile and Argentina,-34.65,-70.05,5189,297,297,1003,676916
241020,Auckland Volcanic Field,Volcanic field,1350,New Zealand,New Zealand to Fiji,New Zealand,-36.9,174.87,260,1049110,1049110,1222436,1446768
313010,Augustine,Lava dome(s),2006,United States,Alaska,Alaska (southwestern),59.363,-153.43,1252,0,0,0,759
300100,Avachinsky,Stratovolcano,2001,Russia,Kamchatka and Mainland Asia,Kamchatka Peninsula,53.256,158.836,2717,0,0,180016,270205
331021,Axial Seamount,Submarine,2015,Undersea Features,Hawaii and Pacific Ocean,Pacific Ocean (northern),45.95,-130,-1410,0,0,0,0
302070,Azas Plateau,Volcanic field,Unknown,Russia,Kamchatka and Mainland Asia,Russia (southeastern),52.433,98.303,2765,142,142,142,4532
355061,"Azufre, Cerro del",Stratovolcano,Unknown,Chile,South America,"Northern Chile, Bolivia and Argentina",-21.787,-68.237,5846,0,58,1143,55567
353060,"Azul, Cerro",Shield,2008,Ecuador,South America,Galapagos Islands,-0.92,-91.408,1640,220,220,314,1936
357060,"Azul, Cerro",Stratovolcano,1967,Chile,South America,Central Chile and Argentina,-35.653,-70.761,3788,9,158,3832,720948
283180,Azumayama,Stratovolcano(es),1977,Japan,"Japan, Taiwan, Marianas",Honshu,37.735,140.244,1949,128,907,548195,4877648
274030,Babuyan Claro,Stratovolcano(es),1924,Philippines,Philippines and SE Asia,North of Luzon,19.523,121.94,1080,208,222,222,11819
322090,Bachelor,Stratovolcano,-5800,United States,Canada and Western USA,USA (Oregon),43.979,-121.688,2763,18,24,22514,231420
255020,Bagana,Lava cone,2020,Papua New Guinea,Melanesia and Australia,Bougainville and Solomon Islands,-6.137,155.196,1855,198,404,7861,115257
300123,Bakening,Stratovolcano,-550,Russia,Kamchatka and Mainland Asia,Kamchatka Peninsula,53.905,158.07,2278,0,10,1583,87139
321010,Baker,Stratovolcano(es),1880,United States,Canada and Western USA,USA (Washington),48.777,-121.813,3285,0,46,8568,1990504
231170,"Bal Haf, Harra of",Volcanic field,Unknown,Yemen,Middle East and Indian Ocean,Middle East (southern),14.067,48.3,604,5690,5690,6643,177124
250020,Baluan,Stratovolcano,Unknown,Papua New Guinea,Melanesia and Australia,Admiralty Islands,-2.57,147.28,254,242,248,982,46898
271010,Balut,Stratovolcano,Unknown,Philippines,Philippines and SE Asia,Mindanao,5.4,125.375,862,1472,1901,10763,1286239
273050,Banahaw,Complex,Unknown,Philippines,Philippines and SE Asia,Luzon,14.07,121.48,2158,754,93134,1698285,23837289
265090,Banda Api,Caldera,1988,Indonesia,Indonesia,Banda Sea,-4.523,129.881,596,5682,5682,5810,5810
283160,Bandaisan,Stratovolcano,1888,Japan,"Japan, Taiwan, Marianas",Honshu,37.601,140.072,1816,5923,17608,327454,4709782
341020,Barcena,Pyroclastic cone(s),1953,Mexico,México and Central America,Mexico,19.3,-110.82,332,0,0,0,0
373030,Bardarbunga,Stratovolcano,2015,Iceland,Iceland and Arctic Ocean,Iceland (northeastern),64.633,-17.516,2000,0,0,0,1348
300084,Barkhatnaya Sopka,Lava dome(s),-3550,Russia,Kamchatka and Mainland Asia,Kamchatka Peninsula,52.802,158.24,874,0,208,13963,252873
222030,"Barrier, The",Shield,1921,Kenya,Africa and Red Sea,Africa (eastern),2.32,36.57,1032,17,112,4180,109675
345050,Barva,Complex,-6050,Costa Rica,México and Central America,Costa Rica,10.135,-84.1,2906,177,8018,2004665,3399329
275050,Bas Dong Nai,Volcanic field,Unknown,Vietnam,Philippines and SE Asia,Southeast Asia,10.8,107.2,392,991688,991688,991688,12300349
264010,Batur,Caldera,2000,Indonesia,Indonesia,Lesser Sunda Islands,-8.242,115.375,1717,466899,466899,937766,4289189
355122,"Bayo Gorbea, Cerro",Complex,Unknown,Chile-Argentina,South America,"Northern Chile, Bolivia and Argentina",-25.414,-68.588,5413,0,26,288,7824
225060,Bayuda Volcanic Field,Pyroclastic cone(s),850,Sudan,Africa and Red Sea,Africa (northern),18.33,32.75,670,1124,1124,2752,259325
322060,Belknap,Shield(s),480,United States,Canada and Western USA,USA (Oregon),44.285,-121.841,2095,0,0,6518,362091
300640,Bely,Shield(s),Unknown,Russia,Kamchatka and Mainland Asia,Kamchatka Peninsula,57.88,160.53,2080,0,0,20,1320
390022,Berlin,Shield(s),-8350,Antarctica,Antarctica,Antarctica and South Sandwich Islands,-76.05,-136,3478,0,0,0,0
290040,Berutarubesan [Berutarube],Stratovolcano,Unknown,Japan - administered by Russia,Kuril Islands,Kuril Islands,44.462,146.932,1221,0,113,240,9155
300250,Bezymianny,Stratovolcano,2020,Russia,Kamchatka and Mainland Asia,Kamchatka Peninsula,55.972,160.595,2882,0,0,47,11728
268073,Bibinoi,Stratovolcano(es),Unknown,Indonesia,Indonesia,Halmahera,-0.761,127.725,932,53,4276,15604,83771
272080,Biliran,Compound,1939,Philippines,Philippines and SE Asia,Central Philippines,11.523,124.535,1301,4612,78799,254519,3177850
255011,Billy Mitchell,Pyroclastic shield,1580,Papua New Guinea,Melanesia and Australia,Bougainville and Solomon Islands,-6.092,155.225,1544,113,449,9620,119191
231072,"Birk, Harrat al",Volcanic field,Unknown,Saudi Arabia,Middle East and Indian Ocean,Middle East (southern),18.37,41.63,587,37855,37855,37855,596401
221220,Bishoftu Volcanic Field,Fissure vent(s),Unknown,Ethiopia,Africa and Red Sea,Africa (northeastern) and Red Sea,8.78,38.98,1850,310101,310101,662037,7986826
324010,Black Butte Crater Lava Field,Shield,-8400,United States,Canada and Western USA,USA (Idaho),43.183,-114.352,1478,119,158,4440,171376
327050,Black Rock Desert,Volcanic field,1290,United States,Canada and Western USA,USA (Utah),38.97,-112.5,1800,3292,3292,3679,54291
357102,"Blanca, Laguna",Volcanic field,Unknown,Argentina,South America,Central Chile and Argentina,-39.02,-70.37,1700,0,0,0,0
355210,"Blanco, Cerro",Caldera,-2300,Argentina,South America,"Northern Chile, Bolivia and Argentina",-26.789,-67.765,4670,39,39,65,14279
311300,Bogoslof,Submarine,2017,United States,Alaska,Aleutian Islands,53.93,-168.03,150,0,0,0,4216
300087,Bolshe-Bannaya,Lava dome(s),Unknown,Russia,Kamchatka and Mainland Asia,Kamchatka Peninsula,52.9,157.78,1200,0,27,1061,271762
300300,Bolshoi Payalpan,Shield(s),Unknown,Russia,Kamchatka and Mainland Asia,Kamchatka Peninsula,55.88,157.78,1906,0,0,26,2653
300150,Bolshoi Semiachik,Stratovolcano(es),-4450,Russia,Kamchatka and Mainland Asia,Kamchatka Peninsula,54.32,160.02,1720,0,0,554,7373
300360,Bolshoi-Kekuknaysky,Shield(s),-5310,Russia,Kamchatka and Mainland Asia,Kamchatka Peninsula,56.483,157.917,1401,0,0,158,2779
221240,Bora-Bericcio,Pyroclastic cone(s),Unknown,Ethiopia,Africa and Red Sea,Africa (northeastern) and Red Sea,8.221,39.05,2267,5822,44666,433373,8356559
221107,Borawli,Stratovolcano,Unknown,Ethiopia,Africa and Red Sea,Africa (northeastern) and Red Sea,13.304,40.987,784,38,100,3699,111101
221210,Boset-Bericha,Stratovolcano(es),Unknown,Ethiopia,Africa and Red Sea,Africa (northeastern) and Red Sea,8.558,39.475,2447,3267,19603,586318,7130451
386020,Bouvet,Shield,-50,Norway,Atlantic Ocean,Atlantic Ocean (southern),-54.408,3.351,741,0,0,0,0
351012,"Bravo, Cerro",Stratovolcano,1720,Colombia,South America,Colombia,5.091,-75.293,3985,1679,4916,538690,3929468
371040,Brennisteinsfjoll,Crater rows,1341,Iceland,Iceland and Arctic Ocean,Iceland (southwestern),63.933,-21.783,610,33526,33526,163469,203012
320170,Bridge River Cones,Volcanic field,Unknown,Canada,Canada and Western USA,Canada,50.8,-123.4,2500,55,55,219,15871
390080,Bristol Island,Stratovolcano,2016,United Kingdom,Antarctica,Antarctica and South Sandwich Islands,-59.017,-26.533,1100,0,0,0,0
390010,Buckle Island,Stratovolcano,1899,Antarctica,Antarctica,Antarctica and South Sandwich Islands,-66.78,163.25,1239,0,0,0,0
311010,Buldir,Stratovolcano,Unknown,United States,Alaska,Aleutian Islands,52.35,175.911,656,0,0,0,0
273010,Bulusan,Stratovolcano(es),2017,Philippines,Philippines and SE Asia,Luzon,12.769,124.056,1535,2789,74286,518705,3360418
223004,Bunyaruguru,Maar(s),Unknown,Uganda,Africa and Red Sea,Africa (central),-0.2,30.08,1554,177517,177517,338735,5955535
221260,Butajiri-Silti Field,Fissure vent(s),Unknown,Ethiopia,Africa and Red Sea,Africa (northeastern) and Red Sea,8.05,38.35,2281,431631,431631,889323,7096283
264001,Buyan-Bratan,Caldera,Unknown,Indonesia,Indonesia,Lesser Sunda Islands,-8.283,115.133,2244,333333,333333,935879,4355947
272050,Cabalían,Stratovolcano,1820,Philippines,Philippines and SE Asia,Central Philippines,10.285,125.218,912,26511,88767,277950,2091362
357112,Caburgua-Huelemolle,Pyroclastic cone(s),-5050,Chile,South America,Central Chile and Argentina,-39.25,-71.75,1652,5951,5951,17774,521553
273090,Cagua,Stratovolcano,1860,Philippines,Philippines and SE Asia,Luzon,18.222,122.123,1133,99,1137,34018,1480952
357042,Calabozos,Caldera,Unknown,Chile,South America,Central Chile and Argentina,-35.558,-70.496,3508,550,550,1023,305637
210040,Calatrava Volcanic Field,Pyroclastic cone(s),-3600,Spain,Mediterranean and Western Asia,Western Europe,38.87,-4.02,1117,197199,197199,197199,774386
358020,Calbuco,Stratovolcano,2015,Chile,South America,Southern Chile and Argentina,-41.33,-72.618,1974,70,871,32265,575233
357091,Callaqui,Stratovolcano,1980,Chile,South America,Central Chile and Argentina,-37.92,-71.45,3164,56,294,4354,400426
224010,Cameroon,Stratovolcano,2000,Cameroon,Africa and Red Sea,Africa (western),4.203,9.17,4095,328,26053,417460,3079036
271080,Camiguin,Stratovolcano(es),1953,Philippines,Philippines and SE Asia,Mindanao,9.203,124.673,1552,12173,51587,92178,2871353
274010,Camiguin de Babuyanes,Stratovolcano,1857,Philippines,Philippines and SE Asia,North of Luzon,18.83,121.86,712,876,1066,1369,409653
211010,Campi Flegrei,Caldera,1538,Italy,Mediterranean and Western Asia,Italy,40.827,14.139,458,2234109,2234109,3006865,6019697
211070,Campi Flegrei del Mar di Sicilia,Submarine,1867,Italy,Mediterranean and Western Asia,Italy,37.1,12.7,-8,230578,230578,230578,633350
390100,Candlemas Island,Stratovolcano,1911,United Kingdom,Antarctica,Antarctica and South Sandwich Islands,-57.08,-26.67,550,0,0,0,0
357140,Carran-Los Venados,Pyroclastic cone(s),1979,Chile,South America,Central Chile and Argentina,-40.35,-72.07,1114,4840,4840,9001,452820
327110,Carrizozo,Pyroclastic cone(s),-3250,United States,Canada and Western USA,USA (New Mexico),33.78,-105.93,1731,2,11,2596,89711
352006,Cayambe,Compound,1786,Ecuador,South America,Ecuador,0.029,-77.986,5790,70,1148,109630,3154986
320811,Cayley Volcanic Field,Volcanic field,Unknown,Canada,Canada and Western USA,Canada,50.12,-123.28,2375,0,0,0,0
358012,Cayutue-La Vigueria,Pyroclastic cone(s),-190,Chile,South America,Southern Chile and Argentina,-41.25,-72.27,506,1737,1737,5482,451311
341030,Ceboruco,Stratovolcano,1875,Mexico,México and Central America,Mexico,21.125,-104.508,2280,616,30319,93057,1282014
222010,Central Island,Tuff cone(s),Unknown,Kenya,Africa and Red Sea,Africa (eastern),3.496,36.04,518,28,28,10253,216485
263170,Cereme,Stratovolcano,1951,Indonesia,Indonesia,Java,-6.895,108.408,3039,915,67377,3058015,25718820
352022,Chacana,Caldera,1773,Ecuador,South America,Ecuador,-0.375,-78.25,4643,81716,81716,348743,3292546
290030,Chachadake [Tiatia],Stratovolcano,1981,Japan - administered by Russia,Kuril Islands,Kuril Islands,44.353,146.252,1822,3,223,896,16275
354007,"Chachani, Nevado",Stratovolcano,Unknown,Peru,South America,Peru,-16.191,-71.53,6057,97,1182,887176,1032411
352002,Chachimbiro,Stratovolcano,-3740,Ecuador,South America,Ecuador,0.468,-78.287,4106,125,5299,356162,3253458
210020,Chaine des Puys,Lava dome(s),-4040,France,Mediterranean and Western Asia,Western Europe,45.775,2.97,1464,323392,323392,427221,1577243
305060,Changbaishan,Stratovolcano,1903,China-North Korea,Kamchatka and Mainland Asia,China (eastern),41.98,128.08,2744,268,1833,29476,1660355
300273,Cherpuk Group,Pyroclastic cone(s),-4550,Russia,Kamchatka and Mainland Asia,Kamchatka Peninsula,55.55,157.47,1868,0,0,32,3323
341080,Chichinautzin,Volcanic field,400,Mexico,México and Central America,Mexico,19.08,-99.13,3930,584725,584725,4061942,28030794
341120,"Chichon, El",Lava dome(s),1982,Mexico,México and Central America,Mexico,17.36,-93.228,1150,3759,11000,143015,3570632
312110,Chiginagak,Stratovolcano,1998,United States,Alaska,Alaska Peninsula,57.135,-156.99,2221,0,0,0,52
290360,Chikurachki,Stratovolcano(es),2016,Russia,Kuril Islands,Kuril Islands,50.324,155.461,1781,0,65,527,2492
351110,Chiles-Cerro Negro,Stratovolcano,1936,Colombia-Ecuador,South America,Colombia,0.817,-77.938,4698,977,4573,151519,1826460
357070,"Chillan, Nevados de",Stratovolcano,2020,Chile,South America,Central Chile and Argentina,-36.868,-71.378,3180,68,371,3733,512325
343090,Chinameca,Stratovolcano,Unknown,El Salvador,México and Central America,El Salvador and Honduras,13.478,-88.33,1300,14998,89206,824983,4897760
342170,Chingo,Stratovolcano,Unknown,Guatemala-El Salvador,México and Central America,Guatemala,14.12,-89.73,1775,330595,330595,867678,7235923
342200,Chiquimula Volcanic Field,Pyroclastic cone(s),Unknown,Guatemala,México and Central America,Guatemala,14.83,-89.55,1192,240892,240892,412617,3740914
290090,Chirippusan [Chirip],Stratovolcano(es),1860,Japan - administered by Russia,Kuril Islands,Kuril Islands,45.338,147.92,1587,77,372,1125,4810
290150,Chirpoi,Caldera,2016,Russia,Kuril Islands,Kuril Islands,46.532,150.871,742,1,1,3,491
283220,Chokaisan,Stratovolcano(es),1974,Japan,"Japan, Taiwan, Marianas",Honshu,39.099,140.049,2236,131,707,185681,2301576
306020,Ch'uga-ryong,Shield,Unknown,North Korea-South Korea,Kamchatka and Mainland Asia,Korea,38.33,127.33,452,1668,23030,262911,15245593
222130,Chyulu Hills,Volcanic field,1855,Kenya,Africa and Red Sea,Africa (eastern),-2.68,37.88,2188,14889,14889,91280,1784980
322150,Cinnamon Butte,Pyroclastic cone(s),Unknown,United States,Canada and Western USA,USA (Oregon),43.241,-122.108,1956,113,113,913,69577
323100,Clear Lake,Volcanic field,Unknown,United States,Canada and Western USA,USA (California),38.97,-122.77,1439,52801,52801,71791,1059280
331030,Cleft Segment,Submarine,1986,Undersea Features,Hawaii and Pacific Ocean,Pacific Ocean (northern),44.83,-130.3,-2140,0,0,0,0
343041,Coatepeque Caldera,Caldera,Unknown,El Salvador,México and Central America,El Salvador and Honduras,13.87,-89.55,746,616730,616730,1210307,6486011
331020,CoAxial Segment,Submarine,1993,Undersea Features,Hawaii and Pacific Ocean,Pacific Ocean (northern),46.52,-129.58,-2400,0,0,0,0
234050,"Cochons, Ile aux",Stratovolcano,Unknown,France,Middle East and Indian Ocean,Indian Ocean (southern),-46.1,50.23,775,0,0,0,0
341096,Cofre de Perote,Shield(s),1150,Mexico,México and Central America,Mexico,19.492,-97.15,4282,658,18638,885440,4907992
341040,Colima,Stratovolcano(es),2019,Mexico,México and Central America,Mexico,19.514,-103.62,3850,76,746,303490,1494790
211004,Colli Albani,Caldera,Unknown,Italy,Mediterranean and Western Asia,Italy,41.73,12.7,949,897039,897039,2962194,5330273
341012,Comondu-La Purisima,Volcanic field,Unknown,Mexico,México and Central America,Mexico,26,-111.92,780,1033,1033,2365,43271
344120,Concepcion,Stratovolcano,2011,Nicaragua,México and Central America,Nicaragua,11.538,-85.622,1700,14072,28900,92378,2266903
357090,Copahue,Stratovolcano,2019,Chile-Argentina,South America,Central Chile and Argentina,-37.856,-71.183,2953,88,555,3042,138414
221290,Corbetti Caldera,Caldera,Unknown,Ethiopia,Africa and Red Sea,Africa (northeastern) and Red Sea,7.193,38.39,2320,565206,565206,1171948,9794061
355101,Cordon de Puntas Negras,Stratovolcano(es),Unknown,Chile,South America,"Northern Chile, Bolivia and Argentina",-23.743,-67.534,5852,0,0,217,5798
382002,Corvo,Stratovolcano,Unknown,Portugal,Atlantic Ocean,Azores,39.699,-31.111,718,516,516,1517,5340
344010,Cosiguina,Stratovolcano,1859,Nicaragua,México and Central America,Nicaragua,12.98,-87.57,872,143,4114,18876,2179830
352050,Cotopaxi,Stratovolcano,2016,Ecuador,South America,Ecuador,-0.677,-78.436,5911,251,7299,152139,3631492
358025,Crater Basalt Volcanic Field,Pyroclastic cone(s),Unknown,Argentina,South America,Southern Chile and Argentina,-42.018,-70.194,1344,448,448,1140,20539
322160,Crater Lake,Caldera,-2850,United States,Canada and Western USA,USA (Oregon),42.93,-122.12,2487,52,52,366,272674
324020,Craters of the Moon,Pyroclastic cone(s),-130,United States,Canada and Western USA,USA (Idaho),43.42,-113.5,2005,15,15,1459,93300
272010,Cuernos de Negros,Complex,Unknown,Philippines,Philippines and SE Asia,Central Philippines,9.25,123.17,1862,1458,39681,531644,2960980
352003,Cuicocha,Caldera,650,Ecuador,South America,Ecuador,0.308,-78.364,3246,178815,178815,364146,3193683
342111,Cuilapa-Barbarena,Volcanic field,Unknown,Guatemala,México and Central America,Guatemala,14.33,-90.4,1454,119602,119602,987252,6943297
351100,Cumbal,Stratovolcano,1926,Colombia,South America,Colombia,0.95,-77.87,4764,1405,10206,244853,1800919
341098,"Cumbres,  Las",Stratovolcano,-3920,Mexico,México and Central America,Mexico,19.15,-97.27,3940,113,1923,315004,6365085
221113,Dabbahu,Stratovolcano,2005,Ethiopia,Africa and Red Sea,Africa (northeastern) and Red Sea,12.595,40.48,1401,204,1150,36494,540735
221114,Dabbayra,Shield,Unknown,Ethiopia,Africa and Red Sea,Africa (northeastern) and Red Sea,12.38,40.07,1302,804,3324,47053,1946949
252040,Dakataua,Caldera,1895,Papua New Guinea,Melanesia and Australia,New Britain,-5.094,150.094,408,1147,1147,3743,113954
221141,Dama Ali,Shield,1631,Ethiopia,Africa and Red Sea,Africa (northeastern) and Red Sea,11.28,41.63,1068,24,1944,40013,353949
232010,Damavand,Stratovolcano,-5350,Iran,Middle East and Indian Ocean,Middle East (western),35.951,52.109,5670,27,2295,59171,11945981
303040,Dariganga Volcanic Field,Pyroclastic cone(s),Unknown,Mongolia,Kamchatka and Mainland Asia,Mongolia,45.754,114.279,1778,18247,18247,18247,25280
353030,Darwin,Shield,1813,Ecuador,South America,Galapagos Islands,-0.18,-91.28,1330,190,190,343,2366
261210,"Daun, Bukit",Stratovolcano(es),Unknown,Indonesia,Indonesia,Sumatra,-3.38,102.37,2467,4088,42410,425096,2318233
322100,Davis Lake,Volcanic field,-2790,United States,Canada and Western USA,USA (Oregon),43.57,-121.82,2163,1440,1440,7483,164597
253060,Dawson Strait Group,Volcanic field,1350,Papua New Guinea,Melanesia and Australia,New Guinea and D'Entrecasteaux Islands,-9.62,150.88,500,5388,5388,7721,80476
390030,Deception Island,Caldera,1970,Antarctica,Antarctica,Antarctica and South Sandwich Islands,-63.001,-60.652,602,0,0,0,0
261230,Dempo,Stratovolcano(es),2017,Indonesia,Indonesia,Sumatra,-4.016,103.121,3142,124,9613,96058,2307584
357050,Descabezado Grande,Stratovolcano(es),1933,Chile,South America,Central Chile and Argentina,-35.58,-70.75,3953,39,142,3454,704116
322120,Devils Garden,Volcanic field,Unknown,United States,Canada and Western USA,USA (Oregon),43.512,-120.861,1698,51,51,287,162601
231120,"Dhamar, Harras of",Volcanic field,1937,Yemen,Middle East and Indian Ocean,Middle East (southern),14.57,44.67,3500,791276,791276,791276,5778965
360080,"Diables, Morne aux",Lava dome(s),Unknown,Dominica,West Indies,West Indies,15.612,-61.43,861,8048,12036,33148,479470
360090,"Diablotins, Morne",Stratovolcano,Unknown,Dominica,West Indies,West Indies,15.503,-61.397,1430,423,9775,69935,513702
322170,Diamond Craters,Volcanic field,-5610,United States,Canada and Western USA,USA (Oregon),43.1,-118.75,1435,66,66,136,6969
263200,Dieng Volcanic Complex,Complex,2018,Indonesia,Indonesia,Java,-7.2,109.879,2565,1092929,1092929,1886942,24381814
300022,Diky Greben,Lava dome(s),350,Russia,Kamchatka and Mainland Asia,Kamchatka Peninsula,51.452,156.978,1040,0,56,544,4568
357067,Domuyo,Stratovolcano,Unknown,Argentina,South America,Central Chile and Argentina,-36.638,-70.432,4702,1,34,1425,30006
221100,Dubbi,Stratovolcano,1861,Eritrea,Africa and Red Sea,Africa (northeastern) and Red Sea,13.579,41.809,1625,0,0,18,14867
268010,Dukono,Complex,2020,Indonesia,Indonesia,Halmahera,1.693,127.894,1229,1575,3348,101506,393070
341022,Durango Volcanic Field,Pyroclastic cone(s),Unknown,Mexico,México and Central America,Mexico,24.15,-104.45,2075,571282,571282,571282,797133
300110,Dzenzursky,Compound,Unknown,Russia,Kamchatka and Mainland Asia,Kamchatka Peninsula,53.637,158.922,2285,0,0,110,250934
284201,East Diamante,Submarine,Unknown,United States,"Japan, Taiwan, Marianas","Izu, Volcano, and Mariana Islands",15.93,145.67,-127,0,0,0,76403
356011,Easter Island,Shield(s),Unknown,Chile,South America,Pacific Ocean (Chilean Islands),-27.15,-109.38,511,698,4029,4091,4091
290380,Ebeko,Stratovolcano,2020,Russia,Kuril Islands,Kuril Islands,50.686,156.014,1103,0,267,1076,3098
222080,"Eburru, Ol Doinyo",Complex,Unknown,Kenya,Africa and Red Sea,Africa (eastern),-0.65,36.22,2856,460,9365,323529,7992639
353011,Ecuador,Shield,1150,Ecuador,South America,Galapagos Islands,-0.02,-91.546,790,135,135,193,894
315040,Edgecumbe,Stratovolcano(es),-2220,United States,Alaska,Alaska (eastern),57.05,-135.75,970,0,0,6613,7074
320060,Edziza,Stratovolcano,950,Canada,Canada and Western USA,Canada,57.72,-130.63,2786,0,0,0,898
214010,Elbrus,Stratovolcano,50,Russia,Mediterranean and Western Asia,Western Asia,43.351,42.442,5642,26,195,5718,1469719
300590,Elovsky,Shield(s),-7550,Russia,Kamchatka and Mainland Asia,Kamchatka Peninsula,57.55,160.53,1381,0,0,44,2704
312020,Emmons Lake,Caldera,Unknown,United States,Alaska,Alaska Peninsula,55.341,-162.073,1436,0,0,686,1199
222051,Emuruangogolak,Shield,1910,Kenya,Africa and Red Sea,Africa (eastern),1.5,36.33,1285,80,252,4448,445177
331010,Endeavour Segment,Submarine,-3490,Canada,Hawaii and Pacific Ocean,Pacific Ocean (northern),47.95,-129.1,-2050,0,0,0,0
257060,Epi,Stratovolcano(es),2004,Vanuatu,Melanesia and Australia,Vanuatu,-16.68,168.37,833,0,170,7819,52827
213010,Erciyes Dagi,Stratovolcano,-6880,Turkey,Mediterranean and Western Asia,Turkey,38.531,35.447,3864,1715,8036,767813,1817720
390020,Erebus,Stratovolcano,2020,Antarctica,Antarctica,Antarctica and South Sandwich Islands,-77.53,167.17,3794,0,0,0,0
221080,Erta Ale,Shield,2020,Ethiopia,Africa and Red Sea,Africa (northeastern) and Red Sea,13.6,40.67,613,2685,2796,8857,235083
285011,Esan,Lava dome(s),1874,Japan,"Japan, Taiwan, Marianas",Hokkaido,41.805,141.166,618,1734,5831,33197,916560
374020,Esjufjoll,Stratovolcano,Unknown,Iceland,Iceland and Arctic Ocean,Iceland (southeastern),64.25,-16.583,1620,0,0,0,2564
344131,Esteli,Fissure vent(s),Unknown,Nicaragua,México and Central America,Nicaragua,13.17,-86.4,899,133804,133804,246244,2574633
211060,Etna,Stratovolcano(es),2020,Italy,Mediterranean and Western Asia,Italy,37.748,14.999,3295,78,3291,1016540,3052770
290050,Etorofu-Atosanupuri [Atosanupuri],Stratovolcano,1932,Japan - administered by Russia,Kuril Islands,Kuril Islands,44.808,147.131,1206,1,289,644,4311
290070,Etorofu-Yakeyama [Grozny Group],Complex(es),2013,Japan - administered by Russia,Kuril Islands,Kuril Islands,45.012,147.871,1158,0,39,2417,6361
372020,Eyjafjallajokull,Stratovolcano,2010,Iceland,Iceland and Arctic Ocean,Iceland (southern),63.633,-19.633,1651,0,4,786,18516
284140,Farallon de Pajaros,Stratovolcano,1967,United States,"Japan, Taiwan, Marianas","Izu, Volcano, and Mariana Islands",20.546,144.893,337,0,0,0,0
382010,Fayal,Stratovolcano,1958,Portugal,Atlantic Ocean,Azores,38.6,-28.73,1043,1514,13757,24414,50663
221190,Fentale,Stratovolcano,1820,Ethiopia,Africa and Red Sea,Africa (northeastern) and Red Sea,8.975,39.93,2007,1919,14201,169357,3482286
311350,Fisher,Stratovolcano,1830,United States,Alaska,Aleutian Islands,54.65,-164.43,1112,0,0,0,25
342140,Flores,Volcanic field,Unknown,Guatemala,México and Central America,Guatemala,14.308,-89.992,1600,205145,205145,397357,7489933
382001,Flores,Stratovolcano(es),-950,Portugal,Atlantic Ocean,Azores,39.462,-31.216,914,1054,4560,5825,5865
384010,Fogo,Stratovolcano,2015,Cape Verde,Atlantic Ocean,Cape Verde Islands,14.95,-24.35,2829,189,13254,37650,267298
223001,Fort Portal,Tuff cone(s),-2120,Uganda,Africa and Red Sea,Africa (central),0.7,30.25,1615,242914,242914,498815,4167189
320010,Fort Selkirk,Volcanic field,Unknown,Canada,Canada and Western USA,Canada,62.93,-137.38,1239,6,6,6,491
233020,"Fournaise, Piton de la",Shield,2020,France,Middle East and Indian Ocean,Indian Ocean (western),-21.244,55.708,2632,55859,55859,246792,717820
373070,Fremrinamar,Stratovolcano,-1200,Iceland,Iceland and Arctic Ocean,Iceland (northeastern),65.416,-16.666,970,0,0,476,19143
312010,Frosty,Stratovolcano(es),Unknown,United States,Alaska,Alaska Peninsula,55.067,-162.835,1728,0,0,67,1153
342090,Fuego,Stratovolcano(es),2020,Guatemala,México and Central America,Guatemala,14.473,-90.88,3763,1373,54332,1016339,7677809
383050,Fuerteventura,Fissure vent(s),Unknown,Spain,Atlantic Ocean,Canary Islands,28.358,-14.02,529,1432,8752,52038,226781
283030,Fujisan,Stratovolcano,1708,Japan,"Japan, Taiwan, Marianas",Honshu,35.361,138.728,3776,570,1759,906969,25022187
282091,Fukue,Shield(s),-400,Japan,"Japan, Taiwan, Marianas",Ryukyu Islands and Kyushu,32.657,128.849,315,18334,40407,61450,704523
382100,Furnas,Stratovolcano,1630,Portugal,Atlantic Ocean,Azores,37.77,-25.32,805,1333,7310,87865,153182
221150,Gabillema,Stratovolcano,Unknown,Ethiopia,Africa and Red Sea,Africa (northeastern) and Red Sea,11.08,41.27,1459,248,772,12626,373968
221050,Gada Ale,Stratovolcano,Unknown,Ethiopia,Africa and Red Sea,Africa (northeastern) and Red Sea,13.975,40.408,287,101,605,4827,618972
334070,Galapagos Rift,Submarine,1996,Undersea Features,Hawaii and Pacific Ocean,Pacific Ocean (eastern),0.792,-86.15,-2430,0,0,0,0
351080,Galeras,Complex,2014,Colombia,South America,Colombia,1.22,-77.37,4276,705,120817,630777,1700248
255062,Gallego,Volcanic field,Unknown,Solomon Islands,Melanesia and Australia,Bougainville and Solomon Islands,-9.35,159.73,1000,10017,10017,81587,169626
263140,Galunggung,Stratovolcano,1984,Indonesia,Indonesia,Java,-7.25,108.058,2168,4781,66495,2382939,23897342
268060,Gamalama,Stratovolcano(es),2018,Indonesia,Indonesia,Halmahera,0.8,127.33,1715,103429,204820,308691,536972
300210,Gamchen,Complex,-550,Russia,Kamchatka and Mainland Asia,Kamchatka Peninsula,54.974,160.703,2539,0,0,382,3829
268040,Gamkonora,Stratovolcano,2007,Indonesia,Indonesia,Halmahera,1.38,127.53,1635,3354,12744,61376,627128
320200,Garibaldi,Stratovolcano,-8060,Canada,Canada and Western USA,Canada,49.85,-123,2678,0,22,16058,2264818
320190,Garibaldi Lake,Volcanic field,Unknown,Canada,Canada and Western USA,Canada,49.933,-123,2316,6635,6635,28109,2218089
252030,Garove,Stratovolcano,Unknown,Papua New Guinea,Melanesia and Australia,New Britain,-4.687,149.511,368,4259,5887,6388,18704
252060,Garua Harbour,Volcanic field,Unknown,Papua New Guinea,Melanesia and Australia,New Britain,-5.3,150.07,565,12090,12090,44354,123676
257020,Gaua,Stratovolcano,2011,Vanuatu,Melanesia and Australia,Vanuatu,-14.27,167.5,797,166,1200,2848,8834
221230,Gedamsa,Caldera,Unknown,Ethiopia,Africa and Red Sea,Africa (northeastern) and Red Sea,8.357,39.188,1873,216008,216008,744211,8000105
263060,Gede-Pangrango,Stratovolcano(es),1957,Indonesia,Indonesia,Java,-6.77,106.965,3008,2500,154390,2315469,40640105
353081,Genovesa,Shield,Unknown,Ecuador,South America,Galapagos Islands,0.32,-89.958,64,197,197,197,2665
214070,Ghegham Volcanic Ridge,Volcanic field,-1900,Armenia,Mediterranean and Western Asia,Western Asia,40.283,45,3597,1265153,1265153,1265153,3151168
321020,Glacier Peak,Stratovolcano,1700,United States,Canada and Western USA,USA (Washington),48.112,-121.113,3213,0,0,23,1340896
341097,"Gloria, La",Volcanic field,Unknown,Mexico,México and Central America,Mexico,19.33,-97.25,3500,108512,108512,290739,5697562
323170,Golden Trout Creek,Volcanic field,-5550,United States,Canada and Western USA,USA (California),36.358,-118.32,2886,3,3,273,461496
253041,Goodenough,Volcanic field,Unknown,Papua New Guinea,Melanesia and Australia,New Guinea and D'Entrecasteaux Islands,-9.48,150.35,220,7639,7639,17932,127955
300070,Gorely,Caldera,2010,Russia,Kamchatka and Mainland Asia,Kamchatka Peninsula,52.559,158.03,1799,0,0,19,250293
382040,Graciosa,Stratovolcano,-1950,Portugal,Atlantic Ocean,Azores,39.02,-27.97,402,2500,5941,6153,96656
383040,Gran Canaria,Fissure vent(s),40,Spain,Atlantic Ocean,Canary Islands,28,-15.58,1950,1101,8049,697199,1119998
344101,Granada,Fissure vent(s),Unknown,Nicaragua,México and Central America,Nicaragua,11.92,-85.98,300,105952,137880,678798,2722372
371060,Grimsnes,Crater rows,-3500,Iceland,Iceland and Arctic Ocean,Iceland (southwestern),64.05,-20.883,200,6253,6253,11236,197798
373010,Grimsvotn,Caldera,2011,Iceland,Iceland and Arctic Ocean,Iceland (northeastern),64.416,-17.316,1719,0,0,0,1736
352020,Guagua Pichincha,Stratovolcano,2002,Ecuador,South America,Ecuador,-0.171,-78.598,4784,449,32488,2064475,3581801
355093,Guayaques,Lava dome(s),Unknown,Chile-Bolivia,South America,"Northern Chile, Bolivia and Argentina",-22.895,-67.566,5598,2,26,408,9770
343052,Guazapa,Stratovolcano,Unknown,El Salvador,México and Central America,El Salvador and Honduras,13.9,-89.12,1438,6492,94131,2488228,6800406
221124,Gufa,Volcanic field,Unknown,Eritrea-Djibouti,Africa and Red Sea,Africa (northeastern) and Red Sea,12.55,42.53,600,1651,1651,6301,186649
263130,Guntur,Complex,1847,Indonesia,Indonesia,Java,-7.143,107.84,2249,4652,218012,3412038,24486191
284050,Hachijojima,Stratovolcano(es),1606,Japan,"Japan, Taiwan, Marianas","Izu, Volcano, and Mariana Islands",33.137,139.766,854,11275,13560,13564,14082
283250,Hachimantai,Stratovolcano,-5350,Japan,"Japan, Taiwan, Marianas",Honshu,39.958,140.854,1613,268,1261,89833,3131126
275001,Hainan Volcanic Field,Pyroclastic cone(s),1933,China,Philippines and SE Asia,Southeast Asia,19.905,110.229,196,1731229,1731229,1731229,6213231
283280,Hakkodasan,Stratovolcano(es),1550,Japan,"Japan, Taiwan, Marianas",Honshu,40.659,140.877,1585,225,730,476624,1921667
283020,Hakoneyama,Complex,2015,Japan,"Japan, Taiwan, Marianas",Honshu,35.233,139.021,1438,14140,53755,1543563,30282197
283050,Hakusan,Stratovolcano,1659,Japan,"Japan, Taiwan, Marianas",Honshu,36.155,136.771,2702,474,807,63965,5959200
332060,Haleakala,Shield,1750,United States,Hawaii and Pacific Ocean,Hawaiian Islands,20.708,-156.25,3055,26074,26074,65398,157582
306040,Halla,Shield,1007,South Korea,Kamchatka and Mainland Asia,Korea,33.361,126.53,1919,134,2653,482766,543082
221022,Hanish,Shield,Unknown,Yemen,Africa and Red Sea,Africa (northeastern) and Red Sea,13.72,42.73,422,219,304,811,850223
252100,Hargy,Stratovolcano,950,Papua New Guinea,Melanesia and Australia,New Britain,-5.33,151.1,1148,84,5093,14613,85504
231001,Harrat Ash Shamah,Volcanic field,1850,Syria-Jordan-Saudi Arabia,Middle East and Indian Ocean,Middle East (western),32.333,37.583,1100,276996,276996,276996,276996
283122,Harunasan,Stratovolcano,550,Japan,"Japan, Taiwan, Marianas",Honshu,36.477,138.851,1449,1135,36116,1185012,14076385
213002,Hasan Dagi,Stratovolcano,Unknown,Turkey,Mediterranean and Western Asia,Turkey,38.13,34.17,3253,235,4979,174584,1362673
275040,Haut Dong Nai,Volcanic field,Unknown,Vietnam,Philippines and SE Asia,Southeast Asia,11.6,108.2,1000,136278,136278,344723,2975160
231110,"Haylan, Jabal",Volcanic field,-1200,Yemen,Middle East and Indian Ocean,Middle East (southern),15.4,45.1,1550,225754,225754,225754,4164209
241140,Healy,Submarine,1360,New Zealand,New Zealand to Fiji,New Zealand,-35.004,178.973,-980,0,0,0,0
234010,Heard,Stratovolcano,2020,Australia,Middle East and Indian Ocean,Indian Ocean (southern),-53.106,73.513,2745,0,0,0,0
372070,Hekla,Stratovolcano,2000,Iceland,Iceland and Arctic Ocean,Iceland (southern),63.983,-19.666,1490,0,0,298,22845
370020,Helgrindur,Pyroclastic cone(s),Unknown,Iceland,Iceland and Arctic Ocean,Iceland (western),64.866,-23.283,986,753,753,2312,20018
324040,Hell's Half Acre,Shield,-3250,United States,Canada and Western USA,USA (Idaho),43.5,-112.45,1631,0,305,12646,295506
371050,Hengill,Crater rows,150,Iceland,Iceland and Arctic Ocean,Iceland (southwestern),64.083,-21.416,803,5722,5722,124106,204855
383020,Hierro,Shield,2012,Spain,Atlantic Ocean,Canary Islands,27.73,-18.03,1500,20321,20321,20321,43696
283131,Hiuchigatake,Stratovolcano,1544,Japan,"Japan, Taiwan, Marianas",Honshu,36.955,139.285,2356,179,720,18567,7523509
390110,Hodson,Stratovolcano,Unknown,United Kingdom,Antarctica,Antarctica and South Sandwich Islands,-56.712,-27.176,835,0,0,0,0
371090,Hofsjokull,Subglacial,Unknown,Iceland,Iceland and Arctic Ocean,Iceland (southwestern),64.833,-18.766,1765,0,0,0,3436
285020,Hokkaido-Komagatake,Stratovolcano,2000,Japan,"Japan, Taiwan, Marianas",Hokkaido,42.063,140.677,1131,173,23091,234213,962081
222070,Homa Mountain,Complex,Unknown,Kenya,Africa and Red Sea,Africa (eastern),-0.38,34.5,1751,16124,60670,628701,10069120
322010,Hood,Stratovolcano,1866,United States,Canada and Western USA,USA (Oregon),45.374,-121.695,3426,0,850,9721,2067520
320080,Hoodoo Mountain,Subglacial,-7050,Canada,Canada and Western USA,Canada,56.78,-131.28,1850,0,0,0,2330
371051,Hromundartindur,Stratovolcano,Unknown,Iceland,Iceland and Arctic Ocean,Iceland (southwestern),64.083,-21.333,550,5738,5738,26028,201964
332040,Hualalai,Shield,1801,United States,Hawaii and Pacific Ocean,Hawaiian Islands,19.692,-155.87,2523,35906,35906,46959,166240
354005,Huambo,Volcanic field,-700,Peru,South America,Peru,-15.83,-72.13,4550,301,1157,7271,1028814
357123,Huanquihue Group,Stratovolcano(es),1750,Argentina,South America,Central Chile and Argentina,-39.887,-71.58,2189,22,108,3515,190322
354030,Huaynaputina,Stratovolcano,1600,Peru,South America,Peru,-16.608,-70.85,4850,36,210,9153,1088509
390028,Hudson Mountains,Stratovolcano(es),-210,Antarctica,Antarctica,Antarctica and South Sandwich Islands,-74.33,-99.42,749,0,0,0,0
358057,"Hudson, Cerro",Stratovolcano,2011,Chile,South America,Southern Chile and Argentina,-45.9,-72.97,1905,0,12,28,81642
358030,Huequi,Lava dome(s),1920,Chile,South America,Southern Chile and Argentina,-42.377,-72.578,1318,0,7,1076,107960
261280,Hulubelu,Caldera,Unknown,Indonesia,Indonesia,Sumatra,-5.334,104.59,849,56894,56894,99405,4261988
261200,Hululais,Compound,Unknown,Indonesia,Indonesia,Sumatra,-3.247,102.239,2122,9,21,45038,1566370
341093,"Humeros, Los",Caldera(s),-4470,Mexico,México and Central America,Mexico,19.68,-97.45,3150,7461,27331,566898,5710131
253050,Iamalele,Lava dome(s),Unknown,Papua New Guinea,Melanesia and Australia,New Guinea and D'Entrecasteaux Islands,-9.52,150.53,200,382,766,8026,113875
268030,Ibu,Stratovolcano,2020,Indonesia,Indonesia,Halmahera,1.488,127.63,1325,1560,14549,64581,637988
300710,Iettunup,Shield(s),Unknown,Russia,Kamchatka and Mainland Asia,Kamchatka Peninsula,58.4,161.08,1340,0,0,2,2905
222161,Igwisi Hills,Pyroclastic cone(s),-10450,Tanzania,Africa and Red Sea,Africa (eastern),-4.889,31.933,1146,37034,37034,105827,774440
263350,Ijen,Stratovolcano(es),1999,Indonesia,Indonesia,Java,-8.058,114.242,2769,1098,5504,664199,6846855
300670,Iktunup,Shield(s),Unknown,Russia,Kamchatka and Mainland Asia,Kamchatka Peninsula,58.08,160.77,2300,0,0,16,1965
313020,Iliamna,Stratovolcano,1876,United States,Alaska,Alaska (southwestern),60.032,-153.09,3053,0,0,1,7564
264220,Iliboleng,Stratovolcano,1993,Indonesia,Indonesia,Lesser Sunda Islands,-8.342,123.258,1659,30359,87503,260688,757701
264240,Ililabalekan,Stratovolcano,Unknown,Indonesia,Indonesia,Lesser Sunda Islands,-8.55,123.38,1018,7747,14260,123287,756090
264170,Ilimuda,Stratovolcano,Unknown,Indonesia,Indonesia,Lesser Sunda Islands,-8.479,122.761,881,32343,72197,263803,903546
264250,Iliwerung,Complex,2013,Indonesia,Indonesia,Lesser Sunda Islands,-8.53,123.57,1018,968,4318,79569,665081
352041,Illiniza,Stratovolcano,Unknown,Ecuador,South America,Ecuador,-0.659,-78.714,5248,535,6034,158371,3941221
343060,Ilopango,Caldera,1880,El Salvador,México and Central America,El Salvador and Honduras,13.672,-89.053,450,2049583,2049583,2948989,6689160
352004,Imbabura,Compound,-5550,Ecuador,South America,Ecuador,0.258,-78.183,4609,538,96294,477043,3245887
314060,Imuruk Lake,Shield(s),300,United States,Alaska,Alaska (western),65.517,-163.45,610,0,0,0,0
321070,Indian Heaven,Shield(s),-6250,United States,Canada and Western USA,USA (Washington),45.93,-121.82,1806,687,687,6911,2019828
357041,Infiernillo,Volcanic field,-6890,Argentina,South America,Central Chile and Argentina,-35.123,-69.9,3007,270,270,1374,40368
264090,Inielika,Complex,2001,Indonesia,Indonesia,Lesser Sunda Islands,-8.73,120.98,1559,4601,27281,162299,818815
264080,Inierie,Stratovolcano,-8050,Indonesia,Indonesia,Lesser Sunda Islands,-8.875,120.95,2245,1073,7501,101938,809293
284120,Ioto,Caldera,2012,Japan,"Japan, Taiwan, Marianas","Izu, Volcano, and Mariana Islands",24.751,141.289,169,1179,1179,1189,1370
282020,Io-Torishima,Complex,1968,Japan,"Japan, Taiwan, Marianas",Ryukyu Islands and Kyushu,27.881,128.223,212,0,0,0,52818
342190,Ipala,Stratovolcano,Unknown,Guatemala,México and Central America,Guatemala,14.55,-89.63,1650,3381,25003,332154,6136659
345060,Irazu,Stratovolcano,1994,Costa Rica,México and Central America,Costa Rica,9.979,-83.852,3432,1978,25442,1667528,3432860
341023,"Isabel, Isla",Tuff cone(s),Unknown,Mexico,México and Central America,Mexico,21.848,-105.886,95,0,0,0,0
273042,Isarog,Stratovolcano,-3500,Philippines,Philippines and SE Asia,Luzon,13.658,123.38,1966,146,27806,1208269,4291363
211030,Ischia,Complex,1302,Italy,Mediterranean and Western Asia,Italy,40.73,13.897,789,18669,20210,383661,5729354
320090,Iskut-Unuk River Cones,Pyroclastic cone(s),1800,Canada,Canada and Western USA,Canada,56.58,-130.55,1880,0,0,0,663
233014,Itasy Volcanic Field,Pyroclastic cone(s),-6050,Madagascar,Middle East and Indian Ocean,Indian Ocean (western),-19.033,46.7,1800,129121,129121,249291,4168513
231050,"Ithnayn, Harrat",Volcanic field,Unknown,Saudi Arabia,Middle East and Indian Ocean,Middle East (southern),26.58,40.2,1625,3112,3112,3112,19734
283270,Iwakisan,Stratovolcano,1863,Japan,"Japan, Taiwan, Marianas",Honshu,40.656,140.303,1625,918,13229,465065,1617801
283240,Iwatesan,Complex,1919,Japan,"Japan, Taiwan, Marianas",Honshu,39.853,141.001,2038,439,18462,415920,2976795
342180,Ixtepeque,Lava dome(s),Unknown,Guatemala,México and Central America,Guatemala,14.42,-89.68,1292,131906,131906,374232,8263727
264110,Iya,Stratovolcano,1969,Indonesia,Indonesia,Lesser Sunda Islands,-8.891,121.641,618,10837,46835,62974,535387
263330,Iyang-Argapura,Complex,Unknown,Indonesia,Indonesia,Java,-7.97,113.57,3088,372,11959,1601344,10538031
341082,Iztaccihuatl,Stratovolcano,Unknown,Mexico,México and Central America,Mexico,19.179,-98.642,5230,98,1343,1036172,27276280
284010,Izu-Oshima,Stratovolcano,1990,Japan,"Japan, Taiwan, Marianas","Izu, Volcano, and Mariana Islands",34.724,139.394,758,2381,8037,8375,11837468
283010,Izu-Tobu,Pyroclastic cone(s),1989,Japan,"Japan, Taiwan, Marianas",Honshu,34.9,139.098,1406,5886,61727,447660,17928355
284090,Izu-Torishima,Stratovolcano,2002,Japan,"Japan, Taiwan, Marianas","Izu, Volcano, and Mariana Islands",30.484,140.303,394,21,21,21,21
268051,Jailolo,Stratovolcano,Unknown,Indonesia,Indonesia,Halmahera,1.08,127.439,993,7459,21868,79855,633186
390829,James Ross Island,Shield,Unknown,Antarctica,Antarctica,Antarctica and South Sandwich Islands,-64.15,-57.75,1630,0,0,0,0
376010,Jan Mayen,Stratovolcano,1985,Norway,Iceland and Arctic Ocean,Atlantic Ocean (Jan Mayen),71.082,-8.155,2197,0,0,0,0
355036,Jatun Mundo Quri Warani,Lava dome(s),Unknown,Bolivia,South America,"Northern Chile, Bolivia and Argentina",-19.78,-66.48,5438,73,341,6186,314777
355035,"Jayu Khota, Laguna",Maar(s),Unknown,Bolivia,South America,"Northern Chile, Bolivia and Argentina",-19.463,-67.432,3650,176,856,6757,70825
322020,Jefferson,Stratovolcano,950,United States,Canada and Western USA,USA (Oregon),44.674,-121.8,3199,0,0,823,556054
305040,Jingbo,Volcanic field,-520,China,Kamchatka and Mainland Asia,China (eastern),44.08,128.83,1000,35038,35038,149132,2372857
302060,Jom-Bolok,Volcanic field,-5180,Russia,Kamchatka and Mainland Asia,Russia (southeastern),52.713,99.021,2047,0,0,6,3578
322190,Jordan Craters,Volcanic field,-1250,United States,Canada and Western USA,USA (Oregon),43.147,-117.46,1473,0,0,28,232946
261220,Kaba,Stratovolcano,2000,Indonesia,Indonesia,Sumatra,-3.522,102.615,1940,278,15352,333750,2608259
284097,Kaikata Seamount,Submarine,Unknown,Japan,"Japan, Taiwan, Marianas","Izu, Volcano, and Mariana Islands",26.667,140.929,-165,0,0,0,0
241010,Kaikohe-Bay of Islands,Volcanic field,400,New Zealand,New Zealand to Fiji,New Zealand,-35.3,173.9,388,13786,13786,18679,133899
284100,Kaitoku Seamount,Submarine,1984,Japan,"Japan, Taiwan, Marianas","Izu, Volcano, and Mariana Islands",26.127,141.102,-95,0,0,0,160
311110,Kanaga,Stratovolcano,2012,United States,Alaska,Aleutian Islands,51.923,-177.168,1307,0,0,0,0
272020,Kanlaon,Stratovolcano,2017,Philippines,Philippines and SE Asia,Central Philippines,10.412,123.132,2435,1662,40276,923257,9345000
263020,Karang,Stratovolcano,Unknown,Indonesia,Indonesia,Java,-6.268,106.05,1768,1006,73942,1753655,23398992
213001,Karapinar Field,Pyroclastic cone(s),Unknown,Turkey,Mediterranean and Western Asia,Turkey,37.667,33.6,1302,46013,46013,73698,1220961
223040,Karisimbi,Stratovolcano,-8050,DR Congo-Rwanda,Africa and Red Sea,Africa (central),-1.506,29.45,4490,9657,85615,1198124,10835260
251030,Karkar,Stratovolcano,2014,Papua New Guinea,Melanesia and Australia,Northeast of New Guinea,-4.649,145.964,1839,5,4159,20127,189841
233010,Karthala,Shield,2007,Comoros,Middle East and Indian Ocean,Indian Ocean (western),-11.75,43.38,2361,225379,225379,278330,399067
300130,Karymsky,Stratovolcano,2019,Russia,Kamchatka and Mainland Asia,Kamchatka Peninsula,54.049,159.443,1513,0,0,291,10848
372030,Katla,Subglacial,1918,Iceland,Iceland and Arctic Ocean,Iceland (southern),63.633,-19.083,1490,0,0,473,11326
312170,Katmai,Stratovolcano,1912,United States,Alaska,Alaska Peninsula,58.28,-154.963,2047,0,0,0,128
223003,Katwe-Kikorongo,Tuff cone(s),Unknown,Uganda,Africa and Red Sea,Africa (central),-0.08,29.92,1067,446218,446218,578503,6241035
214020,Kazbek,Stratovolcano,-750,Georgia,Mediterranean and Western Asia,Western Asia,42.7,44.5,5050,0,9,7693,1749897
300500,Kebeney,Shield,Unknown,Russia,Kamchatka and Mainland Asia,Kamchatka Peninsula,57.1,159.93,1527,0,0,218,6315
300410,Kekurny,Shield(s),Unknown,Russia,Kamchatka and Mainland Asia,Kamchatka Peninsula,56.4,158.85,1377,0,6,46,6020
264140,Kelimutu,Complex,1968,Indonesia,Indonesia,Lesser Sunda Islands,-8.77,121.82,1639,746,9896,118605,606946
300041,Kell,Stratovolcano(es),Unknown,Russia,Kamchatka and Mainland Asia,Kamchatka Peninsula,51.65,157.35,900,0,12,166,3586
305020,Keluo Group,Pyroclastic cone(s),Unknown,China,Kamchatka and Mainland Asia,China (eastern),49.37,125.92,670,20323,20323,72863,994984
263280,Kelut,Stratovolcano,2014,Indonesia,Indonesia,Java,-7.93,112.308,1731,279,50901,2087876,24999627
263110,Kendang,Stratovolcano,Unknown,Indonesia,Indonesia,Java,-7.245,107.709,2594,7758,89790,2601697,21174023
234020,Kerguelen Islands,Stratovolcano(es),Unknown,France,Middle East and Indian Ocean,Indian Ocean (southern),-49.58,69.5,1840,0,0,0,0
261170,Kerinci,Stratovolcano,2020,Indonesia,Indonesia,Sumatra,-1.697,101.264,3800,304,33878,264107,1437454
290200,Ketoi,Stratovolcano,1960,Russia,Kuril Islands,Kuril Islands,47.35,152.475,1172,1,10,11,90
303020,Khanuy Gol,Volcanic field,Unknown,Mongolia,Kamchatka and Mainland Asia,Mongolia,48.67,102.75,1886,6120,6120,6120,66243
290300,Kharimkotan,Stratovolcano,1933,Russia,Kuril Islands,Kuril Islands,49.12,154.508,1145,2,2,4,22
231060,"Khaybar, Harrat",Volcanic field,650,Saudi Arabia,Middle East and Indian Ocean,Middle East (southern),25,39.92,2093,13619,13619,13619,1415732
300053,Khodutka,Stratovolcano(es),-300,Russia,Kamchatka and Mainland Asia,Kamchatka Peninsula,52.062,157.711,2039,0,0,187,3525
360160,Kick 'em Jenny,Submarine,2017,Grenada,West Indies,West Indies,12.3,-61.64,-185,0,4687,72786,104256
282060,Kikai,Caldera,2020,Japan,"Japan, Taiwan, Marianas",Ryukyu Islands and Kyushu,30.793,130.305,704,152,152,152,1002905
300180,Kikhpinych,Stratovolcano(es),1550,Russia,Kamchatka and Mainland Asia,Kamchatka Peninsula,54.489,160.251,1506,0,29,687,4322
332010,Kilauea,Shield,2018,United States,Hawaii and Pacific Ocean,Hawaiian Islands,19.421,-155.287,1222,3122,3122,8495,169550
282090,Kirishimayama,Shield,2018,Japan,"Japan, Taiwan, Marianas",Ryukyu Islands and Kyushu,31.934,130.862,1700,647,8415,407050,3972044
231071,"Kishb, Harrat",Volcanic field,Unknown,Saudi Arabia,Middle East and Indian Ocean,Middle East (southern),22.8,41.38,1475,8028,8028,8028,25048
284061,Kita-Bayonnaise,Submarine,Unknown,Japan,"Japan, Taiwan, Marianas","Izu, Volcano, and Mariana Islands",32.1,139.85,-360,0,0,0,232
284110,Kita-Ioto,Stratovolcano,1945,Japan,"Japan, Taiwan, Marianas","Izu, Volcano, and Mariana Islands",25.424,141.284,792,158,162,162,1210
266120,Klabat,Stratovolcano,Unknown,Indonesia,Indonesia,Sulawesi,1.454,125.031,1968,1352,39935,822740,1326026
300260,Klyuchevskoy,Stratovolcano,2020,Russia,Kamchatka and Mainland Asia,Kamchatka Peninsula,56.056,160.642,4754,0,0,292,12406
290120,Kolokol Group,Stratovolcano,1973,Russia,Kuril Islands,Kuril Islands,46.042,150.083,1328,2,2,128,375
221200,Kone,Caldera(s),1820,Ethiopia,Africa and Red Sea,Africa (northeastern) and Red Sea,8.788,39.701,1380,7289,27271,255387,4245801
221320,Korath Range,Tuff cone(s),Unknown,Ethiopia,Africa and Red Sea,Africa (northeastern) and Red Sea,5.1,35.88,912,24549,24549,48969,270726
222054,Korosi,Shield,Unknown,Kenya,Africa and Red Sea,Africa (eastern),0.77,36.12,1446,1256,9641,85474,2051312
311161,Korovin,Stratovolcano(es),2007,United States,Alaska,Aleutian Islands,52.381,-174.166,1518,0,0,205,205
300020,Koshelev,Stratovolcano,1690,Russia,Kamchatka and Mainland Asia,Kamchatka Peninsula,51.356,156.753,1822,0,2,855,4390
300122,Kostakan,Pyroclastic cone(s),1350,Russia,Kamchatka and Mainland Asia,Kamchatka Peninsula,53.83,158.05,1150,13,13,1352,232577
225021,"Koussi, Emi",Pyroclastic shield,Unknown,Chad,Africa and Red Sea,Africa (northern),19.8,18.53,3415,0,8,26,1616
284030,Kozushima,Lava dome(s),838,Japan,"Japan, Taiwan, Marianas","Izu, Volcano, and Mariana Islands",34.219,139.153,572,2406,2406,5716,442731
373080,Krafla,Caldera,1984,Iceland,Iceland and Arctic Ocean,Iceland (northeastern),65.715,-16.728,800,384,384,1258,25667
262000,Krakatau,Caldera,2020,Indonesia,Indonesia,Krakatau,-6.102,105.423,155,7177,7177,8027,6326159
300190,Krasheninnikov,Caldera,1550,Russia,Kamchatka and Mainland Asia,Kamchatka Peninsula,54.596,160.27,1816,308,308,814,4674
252070,Krummel-Garbuna-Welcker,Stratovolcano(es),2008,Papua New Guinea,Melanesia and Australia,New Britain,-5.416,150.027,564,91,8207,58235,143455
371030,Krysuvik,Crater rows,1340,Iceland,Iceland and Arctic Ocean,Iceland (southwestern),63.883,-22.083,360,29070,29070,164484,195915
300050,Ksudach,Stratovolcano,1907,Russia,Kamchatka and Mainland Asia,Kamchatka Peninsula,51.844,157.572,1079,0,0,244,3850
282050,Kuchinoerabujima,Stratovolcano(es),2020,Japan,"Japan, Taiwan, Marianas",Ryukyu Islands and Kyushu,30.443,130.217,657,1544,1698,5348,149518
282043,Kuchinoshima,Stratovolcano(es),1190,Japan,"Japan, Taiwan, Marianas",Ryukyu Islands and Kyushu,29.968,129.926,628,93,101,291,11002
282120,Kujusan,Stratovolcano(es),1996,Japan,"Japan, Taiwan, Marianas",Ryukyu Islands and Kyushu,33.086,131.249,1791,1667,11771,181541,7815706
213000,Kula,Pyroclastic cone(s),Unknown,Turkey,Mediterranean and Western Asia,Turkey,38.58,28.52,750,66866,66866,187845,2655406
304030,Kunlun Volcanic Group,Pyroclastic cone(s),1951,China,Kamchatka and Mainland Asia,China (western),35.52,80.2,5808,1253,1253,3212,22621
283210,Kurikomayama,Stratovolcano,1950,Japan,"Japan, Taiwan, Marianas",Honshu,38.961,140.788,1627,226,1081,104165,4615592
300023,Kurile Lake,Caldera,-6440,Russia,Kamchatka and Mainland Asia,Kamchatka Peninsula,51.45,157.12,81,23,23,397,4078
283120,Kusatsu-Shiranesan,Stratovolcano(es),2018,Japan,"Japan, Taiwan, Marianas",Honshu,36.618,138.528,2165,4485,14296,434049,5947593
285080,Kussharo,Caldera,1320,Japan,"Japan, Taiwan, Marianas",Hokkaido,43.615,144.427,574,8331,8331,26476,680109
285034,Kuttara,Stratovolcano(es),1820,Japan,"Japan, Taiwan, Marianas",Hokkaido,42.491,141.16,549,10198,34015,220509,3371955
225040,Kutum Volcanic Field,Pyroclastic cone(s),Unknown,Sudan,Africa and Red Sea,Africa (northern),14.57,25.85,1779,30569,30569,30569,194797
257070,Kuwae,Caldera,1974,Vanuatu,Melanesia and Australia,Vanuatu,-16.829,168.536,-2,2836,2836,5725,48609
373050,Kverkfjoll,Stratovolcano,1968,Iceland,Iceland and Arctic Ocean,Iceland (northeastern),64.653,-16.647,1930,0,0,0,2901
222170,Kyejo,Stratovolcano,1800,Tanzania,Africa and Red Sea,Africa (eastern),-9.229,33.792,2176,2259,38428,378511,2263665
383010,La Palma,Stratovolcano(es),1971,Spain,Atlantic Ocean,Canary Islands,28.57,-17.83,2426,442,18506,55922,85416
273080,Laguna Caldera,Caldera,Unknown,Philippines,Philippines and SE Asia,Luzon,14.42,121.27,743,625567,625567,7073814,26270664
344133,"Lajas, Las",Shield,Unknown,Nicaragua,México and Central America,Nicaragua,12.3,-85.73,926,1901,11384,130109,3304910
263320,Lamongan,Stratovolcano,1898,Indonesia,Indonesia,Java,-7.981,113.341,1641,6588,66387,2193829,15322387
252010,Langila,Complex,2018,Papua New Guinea,Melanesia and Australia,New Britain,-5.525,148.42,1330,213,3653,11641,45698
371080,Langjokull,Subglacial,950,Iceland,Iceland and Arctic Ocean,Iceland (southwestern),64.85,-19.7,1100,0,0,5,11973
357122,Lanin,Stratovolcano,560,Chile-Argentina,South America,Central Chile and Argentina,-39.637,-71.502,3776,13,352,3007,202987
383060,Lanzarote,Fissure vent(s),1824,Spain,Atlantic Ocean,Canary Islands,29.03,-13.63,670,19033,80515,164123,225373
355100,Lascar,Stratovolcano(es),2017,Chile,South America,"Northern Chile, Bolivia and Argentina",-23.37,-67.73,5592,0,70,570,8119
323080,Lassen Volcanic Center,Stratovolcano,1917,United States,Canada and Western USA,USA (California),40.492,-121.508,3187,0,9,2340,439135
263260,Lawu,Stratovolcano,1885,Indonesia,Indonesia,Java,-7.625,111.192,3265,2171,68175,2344575,24931156
222120,"Lengai, Ol Doinyo",Stratovolcano,2020,Tanzania,Africa and Red Sea,Africa (eastern),-2.764,35.914,2962,186,1855,18074,545305
271031,Leonard Range,Stratovolcano,120,Philippines,Philippines and SE Asia,Mindanao,7.382,126.047,1080,908,3682,451047,4321874
264200,Leroboleng,Complex,2003,Indonesia,Indonesia,Lesser Sunda Islands,-8.365,122.833,1095,9164,26794,358627,896194
300530,Leutongey,Shield,Unknown,Russia,Kamchatka and Mainland Asia,Kamchatka Peninsula,57.306,159.827,1318,0,0,73,3497
320050,Level Mountain,Shield,Unknown,Canada,Canada and Western USA,Canada,58.42,-131.35,2190,0,0,0,636
264180,Lewotobi,Stratovolcano(es),2003,Indonesia,Indonesia,Lesser Sunda Islands,-8.542,122.775,1703,18686,59084,284976,906184
360030,Liamuiga,Stratovolcano,160,Saint Kitts and Nevis,West Indies,West Indies,17.37,-62.8,1156,2009,7285,35138,141136
355092,Licancabur,Stratovolcano,Unknown,Chile-Bolivia,South America,"Northern Chile, Bolivia and Argentina",-22.83,-67.88,5916,10,86,1650,12389
352081,Licto,Pyroclastic cone(s),Unknown,Ecuador,South America,Ecuador,-1.78,-78.613,3336,250144,250144,333276,1806438
254010,Lihir,Compound,Unknown,Papua New Guinea,Melanesia and Australia,New Ireland,-3.125,152.642,700,959,2592,3562,32340
211042,Lipari,Stratovolcano(es),1230,Italy,Mediterranean and Western Asia,Italy,38.49,14.933,590,26049,28925,36059,1564043
370030,Ljosufjoll,Fissure vent(s),960,Iceland,Iceland and Arctic Ocean,Iceland (western),64.9,-22.483,1063,713,713,1511,192797
357110,Llaima,Stratovolcano,2009,Chile,South America,Central Chile and Argentina,-38.692,-71.729,3125,86,811,18568,630458
266100,Lokon-Empung,Stratovolcano(es),2015,Indonesia,Indonesia,Sulawesi,1.358,124.792,1580,12183,75684,942160,1583346
252071,Lolo,Stratovolcano,Unknown,Papua New Guinea,Melanesia and Australia,New Britain,-5.466,150.509,796,5176,13925,35526,144334
252130,Lolobau,Caldera,1912,Papua New Guinea,Melanesia and Australia,New Britain,-4.92,151.158,858,7243,7243,9659,62340
255030,Loloru,Pyroclastic shield,-1050,Papua New Guinea,Melanesia and Australia,Bougainville and Solomon Islands,-6.52,155.62,1887,1,173,26075,97088
251050,Long Island,Complex,1993,Papua New Guinea,Melanesia and Australia,Northeast of New Guinea,-5.358,147.12,1280,172,2023,4017,78803
305050,Longgang Group,Pyroclastic cone(s),350,China,Kamchatka and Mainland Asia,China (eastern),42.33,126.5,1000,34708,34708,197016,4407575
357100,Lonquimay,Stratovolcano,1990,Chile,South America,Central Chile and Argentina,-38.379,-71.586,2832,96,540,13635,504320
261111,Lubukraya,Stratovolcano,Unknown,Indonesia,Indonesia,Sumatra,1.478,99.209,1862,349,6931,445954,2208734
231040,"Lunayyir, Harrat",Volcanic field,1000,Saudi Arabia,Middle East and Indian Ocean,Middle East (southern),25.17,37.75,1370,234,234,234,61662
275020,Ly Son Group,Volcanic field,Unknown,Vietnam,Philippines and SE Asia,Southeast Asia,15.38,109.12,157,700,700,29181,2303467
242021,Macauley,Caldera,-4360,New Zealand,New Zealand to Fiji,Kermadec Islands,-30.21,-178.475,238,0,0,0,0
382120,Madeira,Shield,-4500,Portugal,Atlantic Ocean,Azores,32.73,-16.97,1862,209816,209816,215730,220977
272070,Mahagnao,Stratovolcano,Unknown,Philippines,Philippines and SE Asia,Central Philippines,10.882,124.888,860,11,4338,66949,827590
266110,Mahawu,Stratovolcano,1977,Indonesia,Indonesia,Sulawesi,1.352,124.865,1299,18618,111852,878193,1503109
357021,Maipo,Caldera,1912,Chile-Argentina,South America,Central Chile and Argentina,-34.164,-69.832,5323,3916,3916,8221,1684481
311310,Makushin,Stratovolcano,1995,United States,Alaska,Aleutian Islands,53.891,-166.923,1800,0,0,3437,3850
300140,Maly Semyachik,Caldera,1952,Russia,Kamchatka and Mainland Asia,Kamchatka Peninsula,54.135,159.674,1527,98,98,497,10182
323150,Mammoth Mountain,Lava dome(s),1260,United States,Canada and Western USA,USA (California),37.631,-119.032,3369,2220,6242,7745,77851
253021,Managlase Plateau,Volcanic field,Unknown,Papua New Guinea,Melanesia and Australia,New Guinea and D'Entrecasteaux Islands,-9.08,148.33,1342,5732,5732,14700,145917
251020,Manam,Stratovolcano,2020,Papua New Guinea,Melanesia and Australia,Northeast of New Guinea,-4.08,145.037,1807,1106,2553,24364,180402
221115,Manda Hararo,Shield(s),2009,Ethiopia,Africa and Red Sea,Africa (northeastern) and Red Sea,12.17,40.82,600,191,857,7455,419204
221122,Manda-Inakir,Fissure vent(s),1928,Ethiopia-Djibouti,Africa and Red Sea,Africa (northeastern) and Red Sea,12.38,42.2,600,116,1130,15991,223924
272030,Mandalagan,Complex,Unknown,Philippines,Philippines and SE Asia,Central Philippines,10.65,123.25,1885,563,6491,765974,9390672
225006,Manzaz Volcanic Field,Pyroclastic cone(s),Unknown,Algeria,Africa and Red Sea,Africa (northern),23.92,5.83,1672,1196,1196,1326,5278
261140,Marapi,Complex,2018,Indonesia,Indonesia,Sumatra,-0.38,100.474,2885,706,57453,818039,4059773
357092,"Mariñaqui, Laguna",Pyroclastic cone(s),Unknown,Chile,South America,Central Chile and Argentina,-38.255,-71.167,2108,95,314,4640,85612
234070,Marion Island,Shield(s),2004,South Africa,Middle East and Indian Ocean,Indian Ocean (southern),-46.9,37.75,1230,0,0,0,0
273081,Mariveles,Stratovolcano,-2050,Philippines,Philippines and SE Asia,Luzon,14.527,120.482,1388,903,48079,455154,25981912
327040,Markagunt Plateau,Volcanic field,1050,United States,Canada and Western USA,USA (Utah),37.58,-112.67,2840,970,970,1887,186184
241061,Maroa,Caldera(s),180,New Zealand,New Zealand to Fiji,New Zealand,-38.42,176.08,897,117,532,27958,475588
225030,"Marra, Jebel",Volcanic field,-2000,Sudan,Africa and Red Sea,Africa (northern),12.95,24.27,3042,638,8692,120061,983802
222021,Marsabit,Shield,Unknown,Kenya,Africa and Red Sea,Africa (eastern),2.32,37.97,1707,16804,22677,49742,111322
312140,Martin,Stratovolcano,1953,United States,Alaska,Alaska Peninsula,58.172,-155.361,1863,0,0,0,914
285061,Maruyama,Stratovolcano(es),1898,Japan,"Japan, Taiwan, Marianas",Hokkaido,43.418,143.031,2013,0,6,3682,1260920
344100,Masaya,Caldera,2020,Nicaragua,México and Central America,Nicaragua,11.985,-86.165,594,989888,989888,1914707,2926954
341031,Mascota Volcanic Field,Pyroclastic cone(s),Unknown,Mexico,México and Central America,Mexico,20.62,-104.83,2560,16293,16293,31760,1083467
285081,Mashu,Caldera,1080,Japan,"Japan, Taiwan, Marianas",Hokkaido,43.572,144.561,857,9794,9794,25627,632919
258010,Matthew Island,Stratovolcano,1956,France,Melanesia and Australia,Pacific Ocean (southwestern),-22.33,171.32,177,1,1,1,1
271020,Matutum,Stratovolcano,1290,Philippines,Philippines and SE Asia,Mindanao,6.37,125.07,2286,855,10431,822372,5316209
357061,"Maule, Laguna del",Caldera,-50,Chile,South America,Central Chile and Argentina,-36.058,-70.492,2162,1045,1045,1521,169334
332030,Mauna Kea,Shield,-2460,United States,Hawaii and Pacific Ocean,Hawaiian Islands,19.82,-155.47,4205,126,126,9950,166888
332020,Mauna Loa,Shield,1984,United States,Hawaii and Pacific Ocean,Hawaiian Islands,19.475,-155.608,4170,45,45,1906,175315
241021,Mayor Island,Shield,-5060,New Zealand,New Zealand to Fiji,New Zealand,-37.28,176.25,355,105,105,141,355290
320180,Meager,Complex,-410,Canada,Canada and Western USA,Canada,50.63,-123.5,2680,1,111,307,17662
323020,Medicine Lake,Shield,1060,United States,Canada and Western USA,USA (California),41.611,-121.554,2412,0,0,254,120685
221330,Mega Basalt Field,Pyroclastic cone(s),Unknown,Ethiopia-Kenya,Africa and Red Sea,Africa (northeastern) and Red Sea,4.063,37.488,1111,2815,2815,7605,119999
283262,Megata,Maar(s),-2050,Japan,"Japan, Taiwan, Marianas",Honshu,39.95,139.73,291,1854,3577,81218,1205440
225050,Meidob Volcanic Field,Pyroclastic cone(s),-2950,Sudan,Africa and Red Sea,Africa (northern),15.32,26.47,2000,5140,5140,5140,24193
390015,Melbourne,Stratovolcano,1892,Antarctica,Antarctica,Antarctica and South Sandwich Islands,-74.35,164.7,2732,0,0,0,0
263250,Merapi,Stratovolcano,2020,Indonesia,Indonesia,Java,-7.54,110.446,2910,49205,185849,4348473,24728414
263240,Merbabu,Stratovolcano,1797,Indonesia,Indonesia,Java,-7.454,110.44,3118,19996,249747,3019783,25096234
222160,Meru,Stratovolcano,1910,Tanzania,Africa and Red Sea,Africa (eastern),-3.25,36.75,4565,0,2506,828942,2375631
212020,Methana,Lava dome(s),-258,Greece,Mediterranean and Western Asia,Greece,37.615,23.336,760,152,1683,48917,4220783
358040,Michinmahuida,Stratovolcano,1835,Chile,South America,Southern Chile and Argentina,-42.799,-72.445,2452,0,9,7989,64498
341060,Michoacan-Guanajuato,Pyroclastic cone(s),1952,Mexico,México and Central America,Mexico,19.85,-101.75,3860,5783287,5783287,5783287,5783287
283080,Midagahara,Stratovolcano,1839,Japan,"Japan, Taiwan, Marianas",Honshu,36.571,137.59,2621,401,521,143935,4455560
284041,Mikurajima,Stratovolcano,-4100,Japan,"Japan, Taiwan, Marianas","Izu, Volcano, and Mariana Islands",33.874,139.602,851,293,293,4551,25466
320120,Milbanke Sound Group,Pyroclastic cone(s),Unknown,Canada,Canada and Western USA,Canada,52.5,-128.73,335,574,574,574,2792
290161,Milna,Stratovolcano,1914,Russia,Kuril Islands,Kuril Islands,46.815,151.786,1504,43,47,49,188
212030,Milos,Stratovolcano(es),140,Greece,Mediterranean and Western Asia,Greece,36.699,24.439,751,6688,7389,9851,73100
284131,Minami-Hiyoshi,Submarine,1975,Japan,"Japan, Taiwan, Marianas","Izu, Volcano, and Mariana Islands",23.5,141.935,-107,0,0,0,26
345030,Miravalles,Stratovolcano,1946,Costa Rica,México and Central America,Costa Rica,10.748,-85.153,2028,79,7492,61875,757945
284040,Miyakejima,Stratovolcano,2010,Japan,"Japan, Taiwan, Marianas","Izu, Volcano, and Mariana Islands",34.094,139.526,775,1848,3189,3474,95663
357130,Mocho-Choshuenco,Stratovolcano(es),1937,Chile,South America,Central Chile and Argentina,-39.927,-72.027,2422,81,789,16633,401631
311111,Moffett,Stratovolcano,-1600,United States,Alaska,Aleutian Islands,51.944,-176.747,1196,0,0,0,0
352005,Mojanda,Stratovolcano(es),Unknown,Ecuador,South America,Ecuador,0.13,-78.27,4263,173,15510,480382,3071030
344110,Mombacho,Stratovolcano,Unknown,Nicaragua,México and Central America,Nicaragua,11.826,-85.968,1344,656,56671,621451,2709304
344090,Momotombo,Stratovolcano,2016,Nicaragua,México and Central America,Nicaragua,12.423,-86.539,1270,100,1851,98583,3569021
323110,Mono Lake Volcanic Field,Pyroclastic cone(s),1790,United States,Canada and Western USA,USA (California),38,-119.03,2121,1066,1066,1491,65028
323120,Mono-Inyo Craters,Lava dome(s),1380,United States,Canada and Western USA,USA (California),37.804,-119.029,2796,558,7393,9048,82160
390081,Montagu Island,Shield,2007,United Kingdom,Antarctica,Antarctica and South Sandwich Islands,-58.445,-26.374,1370,0,0,0,0
390017,Morning,Shield,Unknown,Antarctica,Antarctica,Antarctica and South Sandwich Islands,-78.5,163.53,2723,0,0,0,0
257001,Motlav,Stratovolcano,Unknown,Vanuatu,Melanesia and Australia,Vanuatu,-13.67,167.67,411,251,292,3768,7490
290100,Moyorodake [Medvezhia],Stratovolcano,1999,Japan - administered by Russia,Kuril Islands,Kuril Islands,45.389,148.838,1124,11,42,600,4333
342130,Moyuta,Stratovolcano,Unknown,Guatemala,México and Central America,Guatemala,14.03,-90.1,1662,3457,15469,394687,7064437
223060,Muhavura,Stratovolcano,Unknown,Uganda-Rwanda,Africa and Red Sea,Africa (central),-1.383,29.678,4103,10680,197162,1189226,10833809
252021,Mundua,Complex,Unknown,Papua New Guinea,Melanesia and Australia,New Britain,-4.624,149.339,171,489,501,6406,9419
263251,Muria,Stratovolcano,-160,Indonesia,Indonesia,Java,-6.62,110.88,1625,212,7653,1587867,13061031
300060,Mutnovsky,Complex,2000,Russia,Kamchatka and Mainland Asia,Kamchatka Peninsula,52.449,158.196,2288,0,0,97,250858
284070,Myojinsho,Submarine,1970,Japan,"Japan, Taiwan, Marianas","Izu, Volcano, and Mariana Islands",31.888,139.918,11,0,0,0,242
283100,Myokosan,Stratovolcano,-750,Japan,"Japan, Taiwan, Marianas",Honshu,36.891,138.114,2454,1563,11033,561142,4118863
245030,Nabukelevu,Lava dome(s),1660,Fiji,New Zealand to Fiji,Fiji Islands,-19.12,177.98,805,269,1379,4523,21730
282040,Nakanoshima,Stratovolcano(es),1914,Japan,"Japan, Taiwan, Marianas",Ryukyu Islands and Kyushu,29.859,129.857,979,137,170,364,14037
222040,Namarunu,Shield,-6550,Kenya,Africa and Red Sea,Africa (eastern),1.98,36.43,817,47,537,7073,186674
283141,Nantaisan,Stratovolcano,-9540,Japan,"Japan, Taiwan, Marianas",Honshu,36.765,139.491,2486,781,12768,128931,11079746
341095,Naolinco Volcanic Field,Pyroclastic cone(s),-1200,Mexico,México and Central America,Mexico,19.67,-96.75,2000,108824,108824,739767,4184323
283200,Naruko,Caldera,837,Japan,"Japan, Taiwan, Marianas",Honshu,38.729,140.734,470,54771,54771,210262,4417058
283150,Nasudake,Stratovolcano(es),1963,Japan,"Japan, Taiwan, Marianas",Honshu,37.125,139.963,1915,639,5802,298717,5725203
273082,Natib,Stratovolcano,Unknown,Philippines,Philippines and SE Asia,Luzon,14.72,120.4,1253,450,4977,1050509,25524080
353050,"Negra, Sierra",Shield,2018,Ecuador,South America,Galapagos Islands,-0.83,-91.17,1124,408,408,983,9884
344070,"Negro, Cerro",Pyroclastic cone(s),1999,Nicaragua,México and Central America,Nicaragua,12.506,-86.702,728,1690,10243,296320,3540933
344092,Nejapa-Miraflores,Fissure vent(s),1060,Nicaragua,México and Central America,Nicaragua,12.12,-86.32,360,295906,870837,1610426,3062823
213020,Nemrut Dagi,Stratovolcano,1650,Turkey,Mediterranean and Western Asia,Turkey,38.654,42.229,2948,608,7399,230531,1618263
360040,Nevis Peak,Stratovolcano,Unknown,Saint Kitts and Nevis,West Indies,West Indies,17.15,-62.58,985,5363,9541,35673,132863
322110,Newberry,Shield,690,United States,Canada and Western USA,USA (Oregon),43.722,-121.229,2434,0,0,16437,180091
259010,Newer Volcanics Province,Shield(s),-2900,Australia,Melanesia and Australia,Australia,-37.77,142.5,1011,610361,610361,610361,610361
222164,Ngozi,Caldera,1450,Tanzania,Africa and Red Sea,Africa (eastern),-8.989,33.554,2614,456466,456466,604376,2195623
283090,Niigata-Yakeyama,Lava dome,1998,Japan,"Japan, Taiwan, Marianas",Honshu,36.921,138.036,2400,73,610,226866,3920252
284020,Niijima,Lava dome(s),886,Japan,"Japan, Taiwan, Marianas","Izu, Volcano, and Mariana Islands",34.397,139.27,432,3060,3349,6139,1347661
283140,Nikko-Shiranesan,Shield,1952,Japan,"Japan, Taiwan, Marianas",Honshu,36.799,139.376,2578,513,2502,79844,9303980
285031,Niseko,Stratovolcano(es),-4900,Japan,"Japan, Taiwan, Marianas",Hokkaido,42.875,140.659,1308,778,9981,75171,2967982
290060,Nishihitokappuyama [Bogatyr Ridge],Stratovolcano,Unknown,Japan - administered by Russia,Kuril Islands,Kuril Islands,44.833,147.342,1634,5,130,1268,5735
212050,Nisyros,Stratovolcano,1888,Greece,Mediterranean and Western Asia,Greece,36.586,27.16,698,672,680,14285,461031
243110,Niuafo'ou,Shield,1985,Tonga,New Zealand to Fiji,Tonga Islands,-15.6,-175.63,260,118,155,155,155
283060,Norikuradake,Stratovolcano(es),-50,Japan,"Japan, Taiwan, Marianas",Honshu,36.106,137.554,3026,250,1616,109638,5057979
257081,North Vate,Stratovolcano(es),Unknown,Vanuatu,Melanesia and Australia,Vanuatu,-17.47,168.353,594,3327,6497,26614,61663
334050,Northern EPR at 9.8°N,Submarine,2006,Undersea Features,Hawaii and Pacific Ocean,Pacific Ocean (eastern),9.83,-104.3,-2500,0,0,0,0
283151,Numazawa,Shield,-3400,Japan,"Japan, Taiwan, Marianas",Honshu,37.444,139.566,835,990,4082,110303,4383246
284136,NW Eifuku,Submarine,Unknown,United States,"Japan, Taiwan, Marianas","Izu, Volcano, and Mariana Islands",21.485,144.043,-1535,0,0,0,0
284211,NW Rota-1,Submarine,2010,United States,"Japan, Taiwan, Marianas","Izu, Volcano, and Mariana Islands",14.601,144.775,-517,0,0,0,5988
222056,Nyambeni Hills,Shield,Unknown,Kenya,Africa and Red Sea,Africa (eastern),0.23,37.87,750,13389,107199,768936,2781323
223020,Nyamuragira,Shield,2020,DR Congo,Africa and Red Sea,Africa (central),-1.408,29.2,3058,3751,27027,711356,8333476
223030,Nyiragongo,Stratovolcano,2020,DR Congo,Africa and Red Sea,Africa (central),-1.52,29.25,3470,2416,31145,1006436,9087529
300650,Nylgimelkin,Shield(s),-3550,Russia,Kamchatka and Mainland Asia,Kamchatka Peninsula,57.97,160.65,1764,0,0,26,1792
221280,O'a Caldera,Caldera,Unknown,Ethiopia,Africa and Red Sea,Africa (northeastern) and Red Sea,7.47,38.58,2075,148588,148588,477361,8808566
244010,Ofu-Olosega,Shield(s),1866,United States,New Zealand to Fiji,Samoan and Wallis Islands,-14.175,-169.618,639,220,384,1387,1387
355130,"Ojos del Salado, Nevados",Stratovolcano,750,Chile-Argentina,South America,"Northern Chile, Bolivia and Argentina",-27.109,-68.541,6879,0,11,572,10774
241050,Okataina,Lava dome(s),1981,New Zealand,New Zealand to Fiji,New Zealand,-38.12,176.5,1111,18,579,79591,362413
283003,Oki-Dogo,Shield,Unknown,Japan,"Japan, Taiwan, Marianas",Honshu,36.176,133.334,151,6391,12388,22076,691492
311290,Okmok,Shield,2008,United States,Alaska,Aleutian Islands,53.43,-168.13,1073,0,0,0,4
224030,Oku Volcanic Field,Stratovolcano,Unknown,Cameroon,Africa and Red Sea,Africa (western),6.25,10.5,3011,131944,131944,399741,3698980
222055,Ol Kokwe,Shield,Unknown,Kenya,Africa and Red Sea,Africa (eastern),0.62,36.075,1130,151,8229,115689,2700016
355050,Olca-Paruma,Stratovolcano(es),Unknown,Chile-Bolivia,South America,"Northern Chile, Bolivia and Argentina",-20.939,-68.413,5705,20,225,2318,16180
222090,Olkaria,Pyroclastic cone(s),1770,Kenya,Africa and Red Sea,Africa (eastern),-0.904,36.292,2434,59747,59747,208003,8437829
300052,Olkoviy Volcanic Group,Volcanic field,Unknown,Russia,Kamchatka and Mainland Asia,Kamchatka Peninsula,52.02,157.53,681,34,34,46,3780
210030,Olot Volcanic Field,Pyroclastic cone(s),Unknown,Spain,Mediterranean and Western Asia,Western Europe,42.17,2.53,893,33377,33377,101153,5238117
283142,Omanago Group,Lava dome(s),-3050,Japan,"Japan, Taiwan, Marianas",Honshu,36.795,139.507,2341,698,16316,113236,10276159
283040,Ontakesan,Complex,2014,Japan,"Japan, Taiwan, Marianas",Honshu,35.893,137.48,3067,176,2098,86634,8307889
300080,Opala,Caldera,1776,Russia,Kamchatka and Mainland Asia,Kamchatka Peninsula,52.543,157.339,2439,22,22,50,58949
374010,Oraefajokull,Stratovolcano,1728,Iceland,Iceland and Arctic Ocean,Iceland (southeastern),64.05,-16.633,2010,0,2,367,2723
341100,"Orizaba, Pico de",Stratovolcano,1846,Mexico,México and Central America,Mexico,19.03,-97.27,5564,413,4469,759747,5962920
345010,Orosi,Stratovolcano(es),Unknown,Costa Rica,México and Central America,Costa Rica,10.98,-85.473,1659,43,1024,31463,588207
285010,Oshima-Oshima,Stratovolcano,1790,Japan,"Japan, Taiwan, Marianas",Hokkaido,41.51,139.367,732,6,6,6,88023
283290,Osorezan,Stratovolcano,1787,Japan,"Japan, Taiwan, Marianas",Honshu,41.279,141.12,878,11577,42590,80028,1714622
358010,Osorno,Stratovolcano,1869,Chile,South America,Southern Chile and Argentina,-41.105,-72.496,2659,88,674,11964,655492
300055,Ostanets,Shield(s),Unknown,Russia,Kamchatka and Mainland Asia,Kamchatka Peninsula,52.146,157.322,719,0,0,66,6106
300056,Otdelniy,Pyroclastic cone(s),Unknown,Russia,Kamchatka and Mainland Asia,Kamchatka Peninsula,52.221,157.435,814,14,14,34,8527
342110,Pacaya,Complex,2020,Guatemala,México and Central America,Guatemala,14.382,-90.601,2569,4250,53579,2454482,7033094
284170,Pagan,Stratovolcano(es),2012,United States,"Japan, Taiwan, Marianas","Izu, Volcano, and Mariana Islands",18.13,145.8,570,0,0,0,0
222053,Paka,Shield,-7550,Kenya,Africa and Red Sea,Africa (eastern),0.92,36.18,1697,468,4354,62835,1256175
358080,Pali-Aike Volcanic Field,Pyroclastic cone(s),-5550,Chile-Argentina,South America,Southern Chile and Argentina,-52.082,-69.698,282,288,288,651,95765
357022,Palomo,Stratovolcano,Unknown,Chile,South America,Central Chile and Argentina,-34.608,-70.295,4860,162,325,4732,965894
264150,Paluweh,Stratovolcano,2013,Indonesia,Indonesia,Lesser Sunda Islands,-8.32,121.708,875,446,446,5284,548803
355042,Pampa Luxsar,Volcanic field,Unknown,Bolivia,South America,"Northern Chile, Bolivia and Argentina",-20.85,-68.2,5543,419,419,1391,16459
211041,Panarea,Stratovolcano,Unknown,Italy,Mediterranean and Western Asia,Italy,38.638,15.064,399,2127,2127,42429,1319585
211071,Pantelleria,Shield,1891,Italy,Mediterranean and Western Asia,Italy,36.77,12.02,836,6561,10985,12403,142817
263100,Papandayan,Stratovolcano(es),2002,Indonesia,Indonesia,Java,-7.32,107.73,2665,6835,163468,1637971,19312972
341081,Papayo,Lava dome,Unknown,Mexico,México and Central America,Mexico,19.308,-98.7,3600,377,2081,2207308,28677002
355012,Parinacota,Stratovolcano,290,Chile-Bolivia,South America,"Northern Chile, Bolivia and Argentina",-18.166,-69.142,6336,18,123,3442,63717
263070,Patuha,Stratovolcano,Unknown,Indonesia,Indonesia,Java,-7.162,107.4,2422,12576,76063,1516827,23632738
312030,Pavlof,Stratovolcano,2016,United States,Alaska,Alaska Peninsula,55.417,-161.894,2493,0,0,0,3002
357066,Payun Matru,Shield,-5050,Argentina,South America,Central Chile and Argentina,-36.422,-69.241,3715,0,0,151,13636
360120,Pelee,Stratovolcano,1932,France,West Indies,West Indies,14.809,-61.165,1394,251,5025,382633,609576
263291,Penanggungan,Stratovolcano,Unknown,Indonesia,Indonesia,Java,-7.616,112.62,1631,19435,416275,4605710,25773159
390031,Penguin Island,Stratovolcano,1905,Antarctica,Antarctica,Antarctica and South Sandwich Islands,-62.1,-57.93,180,0,0,0,0
263040,Perbakti-Gagak,Stratovolcano(es),1939,Indonesia,Indonesia,Java,-6.75,106.7,1699,1490,28784,2333456,36630568
261030,Peuet Sague,Complex,2000,Indonesia,Indonesia,Sumatra,4.903,96.289,2785,53,144,16227,1862448
382020,Pico,Stratovolcano,1720,Portugal,Atlantic Ocean,Azores,38.47,-28.4,2351,304,5944,31521,56736
382081,Picos Volcanic System,Pyroclastic cone(s),1652,Portugal,Atlantic Ocean,Azores,37.78,-25.67,350,115732,115732,123990,139730
344080,"Pilas, Las",Complex,1954,Nicaragua,México and Central America,Nicaragua,12.495,-86.688,1088,182,8324,299481,3351820
341001,Pinacate,Pyroclastic cone(s),Unknown,Mexico,México and Central America,Mexico,31.772,-113.498,1200,92,92,408,62753
273083,Pinatubo,Stratovolcano,1993,Philippines,Philippines and SE Asia,Luzon,15.13,120.35,1486,725,3808,1148684,21875048
357040,Planchon-Peteroa,Stratovolcano(es),2019,Chile,South America,Central Chile and Argentina,-35.223,-70.568,3977,6,48,1345,634959
360110,"Plat Pays, Morne",Stratovolcano,1270,Dominica,West Indies,West Indies,15.255,-61.341,940,11227,38372,57856,557207
345034,Platanar,Stratovolcano(es),Unknown,Costa Rica,México and Central America,Costa Rica,10.3,-84.366,2267,620,40382,339271,3381523
390013,"Pleiades, The",Stratovolcano,-1050,Antarctica,Antarctica,Antarctica and South Sandwich Islands,-72.67,165.5,3040,0,0,0,0
345040,Poas,Stratovolcano,2019,Costa Rica,México and Central America,Costa Rica,10.2,-84.233,2708,1947,11107,950796,3411023
273020,Pocdol Mountains,Compound,Unknown,Philippines,Philippines and SE Asia,Luzon,13.05,123.958,1102,2281,116612,808931,3440360
300470,Pogranychny,Shield(s),Unknown,Russia,Kamchatka and Mainland Asia,Kamchatka Peninsula,56.85,159.8,1427,0,0,8,9983
275080,Popa,Stratovolcano,-442,Burma (Myanmar),Philippines and SE Asia,Southeast Asia,20.92,95.25,1518,1108,22922,452931,5923206
341090,Popocatepetl,Stratovolcano(es),2020,Mexico,México and Central America,Mexico,19.023,-98.622,5393,325,2584,634054,26509510
214090,Porak,Stratovolcano,-778,Armenia-Azerbaijan,Mediterranean and Western Asia,Western Asia,40.028,45.74,3029,194,955,62882,1713373
234040,"Possession, Ile de la",Stratovolcano,Unknown,France,Middle East and Indian Ocean,Indian Ocean (southern),-46.42,51.75,934,0,0,0,0
371070,Prestahnukur,Subglacial,-3350,Iceland,Iceland and Arctic Ocean,Iceland (southwestern),64.583,-20.666,1385,60,60,233,183485
234060,Prince Edward Island,Shield,Unknown,South Africa,Middle East and Indian Ocean,Indian Ocean (southern),-46.63,37.95,672,0,0,0,0
390140,Protector Seamounts,Submarine,1962,United Kingdom,Antarctica,Antarctica and South Sandwich Islands,-55.912,-28.167,-55,0,0,0,0
355107,Pular,Stratovolcano(es),Unknown,Chile,South America,"Northern Chile, Bolivia and Argentina",-24.188,-68.054,6233,0,0,50,5000
352011,Pululahua,Caldera,290,Ecuador,South America,Ecuador,0.038,-78.463,3356,534403,534403,1192411,3330856
357160,Puntiagudo-Cordon Cenizos,Stratovolcano,1850,Chile,South America,Central Chile and Argentina,-40.969,-72.264,2493,30,284,5666,698814
351060,Purace,Stratovolcano(es),1977,Colombia,South America,Colombia,2.32,-76.4,4650,1465,7152,335698,1751540
355094,Purico Complex,Pyroclastic shield,Unknown,Chile,South America,"Northern Chile, Bolivia and Argentina",-23,-67.75,5703,0,11,1024,10741
357150,Puyehue-Cordon Caulle,Stratovolcano,2012,Chile,South America,Central Chile and Argentina,-40.59,-72.117,2236,129,783,7163,515357
360140,Qualibou,Caldera,1766,Saint Lucia,West Indies,West Indies,13.83,-61.05,777,87921,87921,172439,690495
357121,Quetrupillan,Stratovolcano,255,Chile,South America,Central Chile and Argentina,-39.496,-71.722,2360,129,518,11191,269087
360020,"Quill, The",Stratovolcano,250,Netherlands,West Indies,West Indies,17.478,-62.96,601,2195,2195,8361,134936
354000,Quimsachata,Lava dome,-4450,Peru,South America,Peru,-14.176,-71.351,3693,5061,9561,85048,580016
252140,Rabaul,Pyroclastic shield,2014,Papua New Guinea,Melanesia and Australia,New Britain,-4.271,152.203,688,3311,43531,199361,252121
231070,"Rahat, Harrat",Volcanic field,1256,Saudi Arabia,Middle East and Indian Ocean,Middle East (southern),23.08,39.78,1744,1010115,1010115,1010115,138380
321030,Rainier,Stratovolcano,1450,United States,Canada and Western USA,USA (Washington),46.853,-121.76,4392,0,128,3187,2667609
264071,Ranakah,Lava dome(s),1991,Indonesia,Indonesia,Lesser Sunda Islands,-8.62,120.52,2350,1283,63314,291790,860496
261251,Ranau,Caldera,Unknown,Indonesia,Indonesia,Sumatra,-4.871,103.925,1854,12275,12275,21279,939197
242030,Raoul Island,Stratovolcano,2006,New Zealand,New Zealand to Fiji,Kermadec Islands,-29.27,-177.92,516,0,0,0,0
290220,Rasshua,Stratovolcano,1957,Russia,Kuril Islands,Kuril Islands,47.77,153.02,956,0,9,9,200
263340,Raung,Stratovolcano,2015,Indonesia,Indonesia,Java,-8.119,114.056,3260,152,572,581515,8123987
290020,Raususan [Mendeleev],Stratovolcano,1880,Japan - administered by Russia,Kuril Islands,Kuril Islands,43.979,145.733,882,236,1783,3527,114486
311280,Recheschnoi,Stratovolcano,Unknown,United States,Alaska,Aleutian Islands,53.157,-168.539,1984,0,0,0,17
358063,Reclus,Pyroclastic cone,1908,Chile,South America,Southern Chile and Argentina,-50.964,-73.585,1000,0,1,420,12382
327812,Red Hill,Volcanic field,-9450,United States,Canada and Western USA,USA (New Mexico),34.25,-108.83,2300,0,0,0,0
241060,Reporoa,Caldera,1180,New Zealand,New Zealand to Fiji,New Zealand,-38.42,176.33,592,2920,2920,11513,363602
352010,Reventador,Stratovolcano,2020,Ecuador,South America,Ecuador,-0.077,-77.656,3562,484,963,4403,2619647
371020,Reykjanes,Crater rows,1831,Iceland,Iceland and Arctic Ocean,Iceland (southwestern),63.85,-22.566,140,13995,13995,15542,192922
345020,Rincon de la Vieja,Complex,2020,Costa Rica,México and Central America,Costa Rica,10.83,-85.324,1916,271,1428,78668,659105
264030,Rinjani,Stratovolcano,2016,Indonesia,Indonesia,Lesser Sunda Islands,-8.42,116.47,3726,10289,55594,1374441,3555330
344060,Rota,Stratovolcano,Unknown,Nicaragua,México and Central America,Nicaragua,12.55,-86.75,832,4930,16664,319797,3503709
390021,Royal Society Range,Pyroclastic cone(s),Unknown,Antarctica,Antarctica,Antarctica and South Sandwich Islands,-78.25,163.33,3000,0,0,0,0
241100,Ruapehu,Stratovolcano,2007,New Zealand,New Zealand to Fiji,New Zealand,-39.28,175.57,2797,14,298,6901,119709
290091,Rucharuyama [Golets-Tornyi Group],Pyroclastic cone(s),Unknown,Japan - administered by Russia,Kuril Islands,Kuril Islands,45.25,148.35,442,1377,1724,2859,5368
351020,"Ruiz, Nevado del",Stratovolcano,2020,Colombia,South America,Colombia,4.892,-75.324,5279,3849,20146,507608,4252435
241130,Rumble III,Submarine,2008,New Zealand,New Zealand to Fiji,New Zealand,-35.745,178.478,-220,0,0,0,0
222166,Rungwe,Stratovolcano,1250,Tanzania,Africa and Red Sea,Africa (eastern),-9.135,33.668,2953,644,20713,393819,2299914
290021,Ruruidake [Smirnov],Stratovolcano,Unknown,Japan - administered by Russia,Kuril Islands,Kuril Islands,44.454,146.139,1486,0,108,903,16132
360010,Saba,Stratovolcano,1640,Netherlands,West Indies,West Indies,17.63,-63.23,887,1718,1718,1752,136185
354006,Sabancaya,Stratovolcano(es),2020,Peru,South America,Peru,-15.787,-71.857,5960,51,526,12678,1052517
355091,Sairecabur,Stratovolcano(es),Unknown,Chile-Bolivia,South America,"Northern Chile, Bolivia and Argentina",-22.72,-67.892,5971,21,69,1721,11172
263050,Salak,Stratovolcano,1938,Indonesia,Indonesia,Java,-6.72,106.73,2211,1367,80578,2675904,38154252
323200,Salton Buttes,Lava dome(s),210,United States,Canada and Western USA,USA (California),33.197,-115.616,-40,227,408,38579,1214088
214050,Samsari Volcanic Center,Lava cone(s),Unknown,Georgia,Mediterranean and Western Asia,Western Asia,41.542,43.7,3290,13210,13210,86563,1467499
341007,San Borja Volcanic Field,Pyroclastic cone(s),Unknown,Mexico,México and Central America,Mexico,28.5,-113.75,1360,722,722,2558,45359
344020,San Cristobal,Stratovolcano,2019,Nicaragua,México and Central America,Nicaragua,12.702,-87.004,1745,208,7876,351227,2002579
353120,San Cristobal,Shield,Unknown,Ecuador,South America,Galapagos Islands,-0.88,-89.5,759,7661,7661,7723,16189
343001,San Diego,Volcanic field,Unknown,El Salvador-Guatemala,México and Central America,El Salvador and Honduras,14.27,-89.48,781,130144,130144,316296,7169826
329020,San Francisco Volcanic Field,Pyroclastic cone,1075,United States,Canada and Western USA,USA (Arizona),35.347,-111.678,3850,23157,23157,70472,190983
357020,San Jose,Stratovolcano(es),1960,Chile-Argentina,South America,Central Chile and Argentina,-33.789,-69.895,6070,194,616,15963,6615248
341003,"San Luis, Isla",Tuff cone,Unknown,Mexico,México and Central America,Mexico,29.97,-114.4,180,0,1,606,18532
341110,San Martin,Shield,1796,Mexico,México and Central America,Mexico,18.57,-95.2,1650,280,3581,259640,1645811
273060,San Pablo Volcanic Field,Stratovolcano,1350,Philippines,Philippines and SE Asia,Luzon,14.12,121.3,1090,1349742,1349742,3039334,24626975
357062,San Pedro-Pellado,Stratovolcano(es),Unknown,Chile,South America,Central Chile and Argentina,-35.989,-70.849,3621,12,208,4155,500494
355070,San Pedro-San Pablo,Stratovolcano(es),1960,Chile,South America,"Northern Chile, Bolivia and Argentina",-21.888,-68.391,6142,0,156,2349,150795
341002,San Quintin Volcanic Field,Pyroclastic cone(s),Unknown,Mexico,México and Central America,Mexico,30.468,-115.996,260,20736,20736,33847,72402
343050,San Salvador,Stratovolcano,1917,El Salvador,México and Central America,El Salvador and Honduras,13.734,-89.294,1893,29514,800780,2857563,6366833
343070,San Vicente,Stratovolcano,Unknown,El Salvador,México and Central America,El Salvador and Honduras,13.595,-88.837,2182,7505,103854,864425,6349950
283002,Sanbesan,Stratovolcano,650,Japan,"Japan, Taiwan, Marianas",Honshu,35.141,132.622,1126,1300,6795,171742,3597290
322040,Sand Mountain Field,Pyroclastic cone(s),-950,United States,Canada and Western USA,USA (Oregon),44.38,-121.93,1664,89,89,1574,519291
352090,Sangay,Stratovolcano,2020,Ecuador,South America,Ecuador,-2.005,-78.341,5286,231,1675,15130,1355275
264050,Sangeang Api,Complex,2020,Indonesia,Indonesia,Lesser Sunda Islands,-8.2,119.07,1912,204,1155,39301,809132
264060,"Sano, Wai",Caldera,Unknown,Indonesia,Indonesia,Lesser Sunda Islands,-8.724,119.986,1319,127347,127347,242184,831863
343020,Santa Ana,Stratovolcano,2005,El Salvador,México and Central America,El Salvador and Honduras,13.853,-89.63,2381,489,21653,1240131,6486880
353091,Santa Cruz,Shield,Unknown,Ecuador,South America,Galapagos Islands,-0.62,-90.33,864,8529,8529,8800,18434
351021,Santa Isabel,Shield,-850,Colombia,South America,Colombia,4.818,-75.365,4944,4793,12226,302952,4137147
342030,Santa Maria,Stratovolcano,2020,Guatemala,México and Central America,Guatemala,14.757,-91.552,3745,8675,119462,1259600,6197420
353090,Santiago,Shield,1906,Ecuador,South America,Galapagos Islands,-0.22,-90.77,920,74,74,104,12001
342150,"Santiago, Cerro",Volcanic field,Unknown,Guatemala,México and Central America,Guatemala,14.33,-89.87,1192,226325,226325,405083,8210264
212040,Santorini,Shield(s),1950,Greece,Mediterranean and Western Asia,Greece,36.404,25.396,367,5176,12266,12336,67468
261131,Sarik-Gajah,Pyroclastic cone(s),Unknown,Indonesia,Indonesia,Sumatra,0.074,100.189,737,5188,21465,247754,2951369
290240,Sarychev Peak,Stratovolcano,2019,Russia,Kuril Islands,Kuril Islands,48.092,153.2,1496,17,143,143,148
290080,Sashiusudake [Baransky],Stratovolcano,1951,Japan - administered by Russia,Kuril Islands,Kuril Islands,45.1,148.019,1125,0,0,4061,6487
390090,Saunders,Stratovolcano,2020,United Kingdom,Antarctica,Antarctica and South Sandwich Islands,-57.8,-26.483,843,0,0,0,0
244040,Savai'i,Shield,1911,Samoa,New Zealand to Fiji,Samoan and Wallis Islands,-13.612,-172.525,1858,0,59,34215,188465
255070,Savo,Stratovolcano,1847,Solomon Islands,Melanesia and Australia,Bougainville and Solomon Islands,-9.13,159.82,485,3200,3200,6251,174571
231160,"Sawad, Harra Es-",Volcanic field,1253,Yemen,Middle East and Indian Ocean,Middle East (southern),13.58,46.12,1737,74598,74598,74598,850297
390050,Seal Nunataks Group,Pyroclastic cone(s),Unknown,Antarctica,Antarctica,Antarctica and South Sandwich Islands,-65.03,-60.05,368,0,0,0,0
311180,Seguam,Stratovolcano(es),1993,United States,Alaska,Aleutian Islands,52.315,-172.51,1054,0,0,0,0
261260,Sekincau Belirang,Caldera(s),Unknown,Indonesia,Indonesia,Sumatra,-5.107,104.317,1717,176,2238,18911,2336471
263300,Semeru,Stratovolcano,2020,Indonesia,Indonesia,Java,-8.108,112.922,3657,2686,8375,1022197,20098931
311060,Semisopochnoi,Stratovolcano,2020,United States,Alaska,Aleutian Islands,51.93,179.58,1221,0,0,0,0
341092,Serdan-Oriental,Tuff cone(s),Unknown,Mexico,México and Central America,Mexico,19.27,-97.47,3485,93158,93158,211350,7672879
265070,Serua,Stratovolcano,1921,Indonesia,Indonesia,Banda Sea,-6.312,130.017,608,58,58,58,258
382080,Sete Cidades,Stratovolcano,1880,Portugal,Atlantic Ocean,Azores,37.87,-25.78,856,3515,10365,102848,127154
261020,Seulawah Agam,Stratovolcano,1839,Indonesia,Indonesia,Sumatra,5.448,95.658,1810,226,10555,306345,1565392
300700,Severny,Shield,-1550,Russia,Kamchatka and Mainland Asia,Kamchatka Peninsula,58.28,160.87,1936,0,0,4,3152
323010,Shasta,Stratovolcano,1250,United States,Canada and Western USA,USA (California),41.409,-122.193,4317,0,35,19785,265016
300270,Sheveluch,Stratovolcano,2020,Russia,Kamchatka and Mainland Asia,Kamchatka Peninsula,56.653,161.36,3283,0,0,1718,11613
283121,Shiga,Shield(s),Unknown,Japan,"Japan, Taiwan, Marianas",Honshu,36.688,138.519,2041,2474,9610,449713,5784413
285040,Shikotsu,Caldera,1979,Japan,"Japan, Taiwan, Marianas",Hokkaido,42.688,141.38,1320,130474,130474,316816,3096376
285090,Shiretoko-Iozan,Stratovolcano,1936,Japan,"Japan, Taiwan, Marianas",Hokkaido,44.133,145.161,1562,6,1516,7890,209060
311360,Shishaldin,Stratovolcano,2020,United States,Alaska,Aleutian Islands,54.756,-163.97,2857,0,0,10,197
261110,Sibualbuali,Stratovolcano,Unknown,Indonesia,Indonesia,Sumatra,1.556,99.255,1819,2249,10838,404339,2481584
222052,Silali,Shield,-5050,Kenya,Africa and Red Sea,Africa (eastern),1.15,36.23,1528,157,784,18705,917921
272040,Silay,Stratovolcano,Unknown,Philippines,Philippines and SE Asia,Central Philippines,10.77,123.23,1510,310,11499,1167963,9522729
320160,Silverthrone,Caldera,Unknown,Canada,Canada and Western USA,Canada,51.43,-126.3,3160,7,7,67,1278
255050,Simbo,Stratovolcano(es),1910,Solomon Islands,Melanesia and Australia,Bougainville and Solomon Islands,-8.292,156.52,335,210,240,833,27923
261080,Sinabung,Stratovolcano,2019,Indonesia,Indonesia,Sumatra,3.17,98.392,2460,997,13801,163630,7646863
261070,Singkut,Caldera(s),1881,Indonesia,Indonesia,Sumatra,3.248,98.501,2181,11833,21448,228453,7958409
343002,"Singuil, Cerro",Pyroclastic cone(s),Unknown,El Salvador,México and Central America,El Salvador and Honduras,14.054,-89.631,926,25874,156926,883616,6672302
390025,Siple,Shield,Unknown,Antarctica,Antarctica,Antarctica and South Sandwich Islands,-73.43,-126.67,3110,0,0,0,0
264270,Sirung,Complex,2015,Indonesia,Indonesia,Lesser Sunda Islands,-8.508,124.13,862,5966,19334,69744,418756
263180,Slamet,Stratovolcano,2014,Indonesia,Indonesia,Java,-7.242,109.208,3428,856,13401,2904026,20217467
300660,Snezhniy,Shield,Unknown,Russia,Kamchatka and Mainland Asia,Kamchatka Peninsula,58.02,160.8,2169,0,0,10,1844
341021,Socorro,Shield,1994,Mexico,México and Central America,Mexico,18.78,-110.95,1050,0,0,0,0
326010,Soda Lakes,Maar(s),Unknown,United States,Canada and Western USA,USA (Nevada),39.53,-118.87,1251,1616,11149,25655,557259
357111,Sollipulli,Caldera,1240,Chile,South America,Central Chile and Argentina,-38.97,-71.52,2282,2971,2971,8904,510741
266030,Soputan,Stratovolcano,2020,Indonesia,Indonesia,Sulawesi,1.112,124.737,1785,4724,69991,501336,1696768
261120,Sorikmarapi,Stratovolcano,1986,Indonesia,Indonesia,Sumatra,0.686,99.539,2145,203,1469,90257,1831957
360060,Soufriere Guadeloupe,Stratovolcano,1977,France,West Indies,West Indies,16.044,-61.664,1467,8839,71345,256899,482449
360050,Soufriere Hills,Stratovolcano,2013,United Kingdom,West Indies,West Indies,16.72,-62.18,915,3006,9401,9458,448929
360150,Soufriere St. Vincent,Stratovolcano,1979,Saint Vincent and the Grenadines,West Indies,West Indies,13.33,-61.18,1220,1491,15327,103882,291476
390070,Southern Thule,Stratovolcano(es),1975,United Kingdom,Antarctica,Antarctica and South Sandwich Islands,-59.442,-27.225,1075,0,0,0,0
320070,Spectrum Range,Shield,Unknown,Canada,Canada and Western USA,Canada,57.43,-130.68,2430,0,0,0,386
313040,Spurr,Stratovolcano,1992,United States,Alaska,Alaska (southwestern),61.299,-152.251,3374,0,0,0,11097
250010,St. Andrew Strait,Complex,1957,Papua New Guinea,Melanesia and Australia,Admiralty Islands,-2.38,147.35,270,633,678,2870,47539
360170,St. Catherine,Stratovolcano,Unknown,Grenada,West Indies,West Indies,12.15,-61.67,840,8561,41976,84210,93321
321050,St. Helens,Stratovolcano,2008,United States,Canada and Western USA,USA (Washington),46.2,-122.18,2549,78,427,2221,2173101
314040,St. Michael,Shield(s),Unknown,United States,Alaska,Alaska (western),63.45,-162.12,715,662,662,662,2625
314010,St. Paul Island,Shield,-1280,United States,Alaska,Alaska (western),57.18,-170.3,203,582,582,582,783
211040,Stromboli,Stratovolcano,2020,Italy,Mediterranean and Western Asia,Italy,38.789,15.213,924,2225,2225,3894,1347563
342160,Suchitan,Stratovolcano(es),Unknown,Guatemala,México and Central America,Guatemala,14.4,-89.78,2042,4149,49376,421074,8257118
252090,Sulu Range,Stratovolcano(es),Unknown,Papua New Guinea,Melanesia and Australia,New Britain,-5.5,150.942,610,298,1543,15051,135039
352040,Sumaco,Stratovolcano,1895,Ecuador,South America,Ecuador,-0.538,-77.626,3990,39,324,8384,679867
261180,Sumbing,Stratovolcano,1921,Indonesia,Indonesia,Sumatra,-2.414,101.728,2507,3,304,49583,1209448
263220,Sumbing,Stratovolcano,1730,Indonesia,Indonesia,Java,-7.384,110.07,3371,15294,310361,2425607,25707858
284080,Sumisujima,Submarine,1916,Japan,"Japan, Taiwan, Marianas","Izu, Volcano, and Mariana Islands",31.44,140.051,136,0,0,0,0
263210,Sundoro,Stratovolcano,1971,Indonesia,Indonesia,Java,-7.3,109.992,3136,52462,496751,2086299,24996512
257010,Suretamatai,Complex,1966,Vanuatu,Melanesia and Australia,Vanuatu,-13.8,167.47,921,68,3509,5555,9242
222110,Suswa,Shield,Unknown,Kenya,Africa and Red Sea,Africa (eastern),-1.151,36.357,2356,474,4041,105232,6914644
282030,Suwanosejima,Stratovolcano(es),2020,Japan,"Japan, Taiwan, Marianas",Ryukyu Islands and Kyushu,29.638,129.714,796,107,107,325,1966
